timestamp,airspeed_kts,altitude_barometric_ft,pitch_deg,roll_deg,yaw_deg,accel_longitudinal_g,accel_lateral_g,accel_vertical_g,rpm_n1_pct,exhaust_gas_temp_c,fuel_flow_kgph,oil_pressure_psi,oil_temp_c,engine_warning,overheat_warning,flight_control_warning
1772701200.0,422.26,25420.7,0.08,1.18,8.53,-0.268,-0.492,1.012,79.02,655.1,4007.0,67.9,83.2,0,0,0
1772701201.0,487.28,21220.4,0.62,-9.44,48.57,-0.155,0.286,1.434,81.28,650.7,3635.0,68.9,78.3,0,0,0
1772701202.0,511.96,20757.5,0.26,11.83,294.61,0.02,0.276,0.71,80.44,643.4,3593.7,64.0,85.6,0,0,0
1772701203.0,417.7,22016.7,6.24,13.34,221.23,-0.25,0.264,1.029,76.31,716.4,3387.4,65.0,75.2,0,0,0
1772701204.0,433.16,28424.1,0.49,4.49,20.64,0.209,0.17,1.445,79.62,669.5,3639.1,61.8,100.4,0,0,0
1772701205.0,480.42,25595.8,3.23,10.2,13.45,0.253,0.107,1.148,83.55,630.7,3913.1,67.9,89.9,0,0,0
1772701206.0,448.95,23094.8,0.32,-3.27,316.61,0.242,0.135,0.706,79.75,614.0,3589.0,66.8,83.2,0,0,0
1772701207.0,475.12,26198.4,1.63,7.84,125.97,0.319,-0.233,0.75,78.83,625.5,3494.2,57.1,85.5,0,0,0
1772701208.0,455.89,24841.7,-1.12,-10.26,118.34,-0.362,-0.458,0.57,79.36,654.3,3682.6,71.4,75.7,0,0,0
1772701209.0,456.68,20974.2,-0.3,-20.48,318.9,-0.32,0.057,1.02,82.17,636.9,3820.1,64.0,73.9,0,0,0
1772701210.0,456.38,21699.9,1.6,16.71,178.46,0.649,0.455,1.254,77.45,646.1,3999.4,68.6,84.7,0,0,0
1772701211.0,433.61,21913.5,-0.58,-10.2,25.48,-0.276,-0.229,0.676,82.95,654.7,3876.6,67.0,77.6,0,0,0
1772701212.0,465.59,27422.2,-0.76,21.68,249.74,0.243,-0.356,1.242,80.58,612.4,4000.7,65.4,73.5,0,0,0
1772701213.0,456.92,18681.9,-2.26,-20.68,217.47,-0.003,0.544,0.379,81.41,656.3,4350.5,59.9,79.3,0,0,0
1772701214.0,453.02,25395.4,1.63,-1.46,41.72,0.455,-0.046,0.785,83.71,611.0,3512.4,56.8,73.6,0,0,0
1772701215.0,439.61,22143.6,2.96,2.26,59.49,0.059,-0.454,0.493,81.56,576.8,3923.9,64.6,89.3,0,0,0
1772701216.0,437.35,23459.1,3.17,3.15,38.41,-0.037,0.021,0.901,84.45,718.2,4054.3,67.3,86.1,0,0,0
1772701217.0,442.02,29507.2,-1.92,3.46,125.51,0.097,-0.473,0.948,79.07,629.0,3523.1,60.4,77.2,0,0,0
1772701218.0,475.5,24088.1,-3.11,2.67,93.82,-0.259,0.37,0.732,79.85,642.9,3501.2,70.0,96.8,0,0,0
1772701219.0,528.5,28332.6,-0.52,14.67,181.49,0.288,0.174,1.127,80.07,654.4,3855.6,72.2,88.6,0,0,0
1772701220.0,451.17,30392.6,-0.33,2.28,191.02,-0.559,-0.063,0.613,76.64,651.3,3650.1,68.8,99.4,0,0,0
1772701221.0,464.44,27863.3,1.61,-1.6,69.52,-0.651,0.231,0.484,80.79,638.7,3874.0,62.9,77.8,0,0,0
1772701222.0,442.53,22795.7,1.73,7.41,115.72,0.4,0.093,1.273,77.23,662.5,3779.5,53.2,73.5,0,0,0
1772701223.0,465.29,25347.6,0.98,-13.07,69.64,0.2,-0.17,1.153,79.19,720.0,4300.7,56.7,71.8,0,0,0
1772701224.0,408.38,24865.3,-0.96,-0.75,208.27,-0.452,-0.298,1.236,81.27,638.9,4269.4,64.3,79.5,0,0,0
1772701225.0,435.03,26268.9,0.31,-21.45,30.71,0.083,0.245,0.36,77.82,625.7,3928.3,67.3,89.9,0,0,0
1772701226.0,493.06,22220.1,2.19,-7.83,131.88,0.022,-0.128,0.577,81.23,626.8,4115.4,72.9,90.9,0,0,0
1772701227.0,481.32,22619.7,1.91,1.22,60.98,-0.04,0.261,0.503,78.65,672.9,4298.5,62.9,89.0,0,0,0
1772701228.0,423.66,25277.2,-3.53,15.73,140.11,0.549,0.194,1.077,77.44,678.3,4299.6,69.1,89.3,0,0,0
1772701229.0,543.01,29652.6,2.43,11.51,25.88,-0.098,-0.805,0.509,80.41,669.0,4055.8,59.7,95.1,0,0,0
1772701230.0,415.84,29594.4,1.96,17.22,17.54,0.501,0.113,1.14,82.33,628.2,3807.1,70.0,97.1,0,0,0
1772701231.0,484.6,22493.2,3.03,5.75,75.53,0.305,0.262,1.269,81.49,689.8,3517.5,62.4,79.9,0,0,0
1772701232.0,442.42,29156.6,1.17,8.61,232.92,0.2,0.309,0.962,81.2,645.0,4230.2,66.4,85.4,0,0,0
1772701233.0,451.76,27192.3,0.47,-12.44,37.1,-0.064,0.074,1.423,81.35,633.7,4221.3,60.7,88.0,0,0,0
1772701234.0,500.45,27140.5,-1.39,0.03,7.47,-0.554,-0.379,1.001,84.26,635.2,3865.0,62.1,89.2,0,0,0
1772701235.0,439.38,25566.2,0.27,-3.29,24.09,0.599,-0.021,1.465,83.18,667.3,3290.2,66.0,90.3,0,0,0
1772701236.0,504.13,23527.0,3.13,-7.27,290.07,0.561,0.469,0.9,87.75,648.2,3786.4,59.2,90.7,0,0,0
1772701237.0,455.63,32260.8,2.9,-6.29,240.57,0.062,0.104,0.766,75.03,696.4,3569.0,63.7,91.1,0,0,0
1772701238.0,427.54,27214.1,-1.45,-7.54,315.54,-0.04,0.126,0.2,77.64,651.6,3961.6,70.7,92.5,0,0,0
1772701239.0,451.81,22024.9,-0.93,-3.96,320.23,0.001,0.126,0.63,80.71,691.8,3487.7,66.2,77.9,0,0,0
1772701240.0,436.7,20540.5,-3.85,9.05,112.23,-0.105,-0.626,1.342,80.22,629.0,3467.2,57.7,88.1,0,0,0
1772701241.0,458.74,23864.0,0.74,-8.95,334.74,-0.163,0.224,1.179,81.91,634.3,3483.3,65.7,87.0,0,0,0
1772701242.0,506.97,27211.6,2.63,15.32,310.4,0.261,-0.415,1.265,78.19,653.5,3397.6,66.6,78.4,0,0,0
1772701243.0,415.26,25852.7,1.62,-10.2,5.82,-0.417,-0.208,0.908,79.55,640.2,3912.7,62.2,87.6,0,0,0
1772701244.0,423.79,24104.5,3.19,16.71,355.19,-0.159,-0.5,0.939,80.19,590.6,4003.7,69.0,83.5,0,0,0
1772701245.0,455.65,35498.9,-1.52,-0.95,54.28,-0.182,0.445,0.366,76.54,607.0,3821.5,62.5,80.7,0,0,0
1772701246.0,460.53,23614.3,2.01,-9.65,52.22,-0.191,-0.159,0.547,79.81,669.0,4116.2,62.5,86.1,0,0,0
1772701247.0,448.47,23003.9,0.38,-4.59,185.46,-0.227,-0.015,1.092,81.38,689.2,3753.8,62.5,93.8,0,0,0
1772701248.0,438.16,22337.7,2.14,1.16,61.05,-0.296,-0.327,1.819,78.46,694.3,3724.9,71.7,86.1,0,0,0
1772701249.0,460.9,25897.7,-2.49,-14.01,352.75,-0.292,0.235,1.023,81.98,657.1,4104.1,61.5,87.0,0,0,0
1772701250.0,479.55,20285.7,1.4,19.81,59.07,0.187,-0.083,1.036,79.79,657.1,3904.4,63.4,78.2,0,0,0
1772701251.0,464.06,20533.1,-1.08,-27.56,203.08,-0.304,-0.252,0.905,75.92,630.2,3666.2,65.5,83.1,0,0,0
1772701252.0,448.71,26169.9,1.09,-12.14,242.14,-0.122,-0.129,1.081,85.79,592.8,3930.1,65.2,94.1,0,0,0
1772701253.0,430.44,25417.2,1.22,-11.36,1.56,-0.145,0.101,1.226,79.8,644.2,3929.0,58.8,81.2,0,0,0
1772701254.0,497.57,28487.7,-0.75,6.11,32.39,-0.61,-0.051,1.765,79.55,641.8,3322.5,67.2,92.6,0,0,0
1772701255.0,416.51,27960.9,2.4,-2.09,239.55,-0.175,-0.161,0.474,82.21,622.3,3520.0,63.1,84.8,0,0,0
1772701256.0,430.24,26608.0,3.06,-9.86,147.59,-0.033,0.375,1.115,82.15,663.7,3762.7,65.2,80.0,0,0,0
1772701257.0,430.14,24723.5,1.2,1.32,90.67,-0.31,0.093,0.679,76.7,617.2,3648.3,59.3,86.9,0,0,0
1772701258.0,421.85,23409.4,2.53,-10.87,235.65,0.152,0.179,0.661,74.36,646.5,4039.3,72.8,98.8,0,0,0
1772701259.0,478.52,24844.2,5.14,3.99,338.84,0.218,-0.228,0.377,84.76,600.5,4040.5,67.9,73.4,0,0,0
1772701260.0,484.65,22525.9,-2.15,7.28,205.93,-0.465,-0.014,0.467,81.73,705.9,3902.3,64.8,86.3,0,0,0
1772701261.0,454.78,25366.9,3.12,1.41,276.99,0.267,0.214,0.853,80.79,588.7,3577.4,59.9,75.4,0,0,0
1772701262.0,473.28,25816.7,3.87,-0.63,170.36,0.066,-0.302,1.323,81.91,628.3,3981.1,72.5,85.8,0,0,0
1772701263.0,397.77,26476.0,-2.47,-0.54,315.81,-0.054,0.128,1.153,84.71,646.6,3625.1,61.7,84.5,0,0,0
1772701264.0,469.61,23009.7,1.93,-4.48,147.6,0.064,-0.256,1.291,78.39,634.5,3989.5,64.3,81.5,0,0,0
1772701265.0,470.72,26320.9,0.08,-12.06,343.87,0.366,-0.583,0.815,79.3,644.4,3789.9,65.6,88.7,0,0,0
1772701266.0,438.24,27277.8,-3.92,3.14,189.65,0.295,-0.103,0.408,77.59,675.1,3735.5,75.5,88.6,0,0,0
1772701267.0,449.08,24606.3,2.49,-5.45,358.61,0.455,0.225,1.801,82.12,626.4,3977.1,69.9,79.0,0,0,0
1772701268.0,420.6,32246.4,1.36,-0.75,141.02,-0.185,-0.187,1.288,76.5,647.3,3635.8,68.7,85.0,0,0,0
1772701269.0,437.73,26224.6,0.54,3.81,13.84,-0.335,-0.162,1.007,77.76,685.2,4096.0,72.2,78.8,0,0,0
1772701270.0,390.39,21975.7,3.17,-2.42,205.11,0.198,0.251,1.11,77.66,674.8,3672.2,61.7,98.6,0,0,0
1772701271.0,429.88,27348.6,0.53,1.8,176.66,-0.053,-0.429,1.704,79.94,707.1,4194.3,61.5,90.6,0,0,0
1772701272.0,459.99,26065.3,0.82,-0.68,280.71,0.115,-0.069,0.802,76.69,565.7,3609.4,75.3,77.7,0,0,0
1772701273.0,420.56,21019.6,0.82,-4.79,234.62,-0.282,-0.415,1.774,82.75,642.7,3996.1,72.3,84.3,0,0,0
1772701274.0,441.86,21504.7,0.38,-1.38,212.9,-0.15,-0.461,0.583,79.44,672.9,4156.1,65.0,81.6,0,0,0
1772701275.0,425.72,26416.0,-1.67,13.18,102.32,-0.397,-0.31,1.535,79.17,643.9,4008.9,65.1,75.8,0,0,0
1772701276.0,475.06,25669.9,4.77,-6.94,186.03,0.281,0.02,0.344,79.8,720.0,3200.0,60.3,101.6,0,0,0
1772701277.0,498.75,32143.9,1.9,8.88,104.51,0.04,0.105,1.552,74.55,629.0,3558.0,70.5,88.1,0,0,0
1772701278.0,459.56,28045.3,-0.5,-10.21,212.65,0.225,-0.296,1.197,79.46,690.0,3851.1,75.7,98.3,0,0,0
1772701279.0,393.31,25411.7,0.17,13.6,43.97,0.216,0.006,0.607,81.28,595.7,3875.5,72.7,74.4,0,0,0
1772701280.0,482.3,28604.9,-1.31,-6.29,231.72,-0.29,0.185,0.814,79.14,636.8,3677.0,65.7,84.7,0,0,0
1772701281.0,494.01,23164.3,1.35,2.52,25.47,0.436,-0.087,1.017,81.73,673.7,3800.9,63.8,106.3,0,0,0
1772701282.0,456.39,26760.8,-0.35,-5.66,328.0,-0.257,0.053,1.407,79.91,660.3,3984.1,62.2,76.3,0,0,0
1772701283.0,445.04,25605.3,0.26,0.64,72.84,0.353,-0.075,1.092,81.12,631.0,4092.6,64.2,86.6,0,0,0
1772701284.0,463.05,27135.4,-1.44,10.26,194.77,-0.268,-0.304,0.85,79.31,691.3,3920.1,62.5,74.9,0,0,0
1772701285.0,504.54,27430.6,2.12,6.76,33.37,0.095,-0.553,1.255,77.82,632.2,3899.4,64.1,81.6,0,0,0
1772701286.0,463.66,22588.7,-0.44,8.63,273.56,-0.188,-0.167,1.681,85.59,675.0,3703.4,58.8,80.2,0,0,0
1772701287.0,475.45,24721.0,1.54,7.31,234.19,-0.031,0.455,0.829,82.24,634.5,4341.9,65.7,77.0,0,0,0
1772701288.0,468.74,28404.7,0.63,-11.06,39.73,-0.139,-0.225,0.896,79.35,627.7,3429.1,67.8,83.5,0,0,0
1772701289.0,449.43,22229.6,2.61,6.47,15.86,-0.182,0.452,0.906,82.78,602.6,3970.5,64.5,77.2,0,0,0
1772701290.0,415.97,25281.5,1.75,18.99,224.1,-0.283,-0.012,1.265,80.8,682.5,3684.4,70.4,79.4,0,0,0
1772701291.0,471.48,21251.9,2.19,-13.24,332.34,-0.567,-0.078,1.659,80.48,657.4,3380.9,61.3,97.2,0,0,0
1772701292.0,385.06,20166.3,-0.55,8.12,6.11,0.049,-0.328,1.521,77.28,661.1,4040.9,63.6,93.1,0,0,0
1772701293.0,464.6,25962.1,0.83,9.94,339.11,0.205,0.266,0.916,75.75,651.6,4098.1,64.0,81.9,0,0,0
1772701294.0,433.78,23179.8,3.58,-12.76,179.3,-0.201,-0.322,0.881,80.02,689.8,2759.8,69.2,73.5,0,0,0
1772701295.0,505.53,21427.9,2.52,8.67,5.78,0.147,-0.558,1.458,79.72,640.6,3781.2,62.5,85.4,0,0,0
1772701296.0,470.49,23464.1,-0.42,3.47,348.59,-0.583,-0.203,0.732,79.83,708.6,3600.9,63.9,82.4,0,0,0
1772701297.0,493.72,21194.4,-1.85,-11.1,219.83,0.624,-0.625,1.144,82.65,650.8,4404.6,67.7,78.6,0,0,0
1772701298.0,480.59,23760.2,3.46,19.4,190.54,-0.103,0.247,0.716,82.71,593.7,4146.2,74.6,81.5,0,0,0
1772701299.0,481.31,21000.0,3.22,7.64,335.42,0.207,0.319,0.2,80.57,655.2,4166.6,67.7,75.7,0,0,0
1772701300.0,468.33,23137.0,1.73,23.93,209.19,-0.015,-0.013,1.225,79.05,675.2,3793.5,64.1,100.4,0,0,0
1772701301.0,437.41,25806.7,1.3,0.27,223.41,0.378,0.151,0.68,81.09,651.9,3537.9,72.2,87.5,0,0,0
1772701302.0,452.75,27032.5,2.01,-16.07,210.99,-0.063,0.176,0.223,74.65,633.1,3688.7,67.0,83.5,0,0,0
1772701303.0,426.06,26806.6,2.43,3.35,107.79,0.189,-0.366,0.915,78.31,720.0,3954.3,59.2,85.9,0,0,0
1772701304.0,399.25,29251.5,1.08,9.02,342.55,0.311,-0.046,1.101,76.3,673.1,3820.5,60.0,80.1,0,0,0
1772701305.0,421.71,23434.7,1.25,-5.38,16.83,-0.337,0.268,0.701,76.09,667.3,4247.4,69.3,78.3,0,0,0
1772701306.0,445.0,20815.2,-0.0,24.68,244.96,-0.595,0.175,0.746,78.62,613.4,4073.4,69.3,93.0,0,0,0
1772701307.0,476.11,28128.6,2.23,8.69,119.23,0.016,-0.131,0.519,78.61,632.7,3738.3,61.6,87.3,0,0,0
1772701308.0,429.83,25083.0,-3.15,-9.71,14.81,0.145,0.777,1.071,84.07,684.4,3388.2,57.1,87.6,0,0,0
1772701309.0,490.32,25012.6,0.74,-16.61,325.46,0.412,0.065,0.944,81.85,616.7,3917.5,61.9,87.1,0,0,0
1772701310.0,416.38,20107.8,0.32,-17.24,284.34,-0.06,-0.126,0.401,81.39,663.1,3591.7,59.3,86.3,0,0,0
1772701311.0,481.15,25560.4,-1.58,-10.83,194.78,-0.398,-0.072,0.789,78.47,629.2,3737.5,57.2,84.5,0,0,0
1772701312.0,502.75,25250.7,0.41,6.15,179.62,-0.424,-0.134,0.323,77.5,667.3,3912.3,60.3,77.0,0,0,0
1772701313.0,398.07,27702.6,1.86,14.93,1.46,-0.174,0.097,0.613,79.57,660.9,4172.6,63.0,91.8,0,0,0
1772701314.0,470.5,18277.4,1.38,14.63,240.91,0.636,-0.093,1.05,77.17,651.7,3469.2,69.0,88.2,0,0,0
1772701315.0,381.45,22318.2,1.0,5.91,279.42,-0.202,0.241,0.477,76.14,632.4,3689.5,59.7,87.4,0,0,0
1772701316.0,489.47,26484.6,3.34,-15.15,264.69,0.218,-0.162,0.906,76.35,635.0,3215.5,57.6,84.0,0,0,0
1772701317.0,463.33,27685.0,2.65,15.02,0.17,0.458,-0.344,0.755,76.63,563.9,4084.3,62.9,74.6,0,0,0
1772701318.0,428.07,25483.0,-1.76,3.19,168.68,-0.231,0.041,1.802,85.3,674.8,4324.4,61.1,78.0,0,0,0
1772701319.0,422.32,29227.7,-0.81,9.49,247.49,-0.053,0.152,1.155,84.22,676.4,3614.4,62.2,100.3,0,0,0
1772701320.0,415.41,22075.9,-0.81,4.07,129.99,0.102,-0.036,0.792,75.0,649.3,3925.1,62.0,82.3,0,0,0
1772701321.0,422.94,28151.4,3.65,-5.86,110.64,-0.038,0.065,0.628,84.73,673.9,3460.2,71.1,104.0,0,0,0
1772701322.0,444.54,28139.1,0.73,-0.96,62.96,0.637,0.499,0.786,82.74,666.1,3551.2,68.8,91.2,0,0,0
1772701323.0,442.38,26399.1,4.13,7.09,88.93,-0.16,0.356,0.572,81.48,664.5,4043.5,59.5,74.4,0,0,0
1772701324.0,451.05,22404.8,1.17,-16.51,116.97,-0.013,0.243,1.123,77.15,647.3,3681.4,64.8,89.9,0,0,0
1772701325.0,428.77,27661.1,0.73,1.54,90.83,0.044,-0.278,0.742,81.97,621.3,4245.1,62.1,84.2,0,0,0
1772701326.0,462.52,28657.1,3.82,4.41,200.14,0.344,-0.476,0.223,76.92,676.9,4216.5,66.8,79.5,0,0,0
1772701327.0,427.29,24541.4,1.15,3.39,129.04,-0.606,-0.363,1.161,80.8,620.8,3773.1,60.0,86.5,0,0,0
1772701328.0,418.5,23773.7,-3.26,19.25,323.43,-0.165,0.061,0.504,81.37,679.4,3824.0,68.1,73.3,0,0,0
1772701329.0,471.7,28507.3,-0.4,4.12,197.39,0.223,-0.23,1.369,82.44,692.8,3918.9,75.5,89.4,0,0,0
1772701330.0,448.08,30977.9,-0.18,-13.24,348.52,-0.55,0.225,0.266,84.58,671.1,3772.4,66.3,99.3,0,0,0
1772701331.0,433.41,24525.1,-1.69,6.49,275.38,-0.054,0.311,1.448,79.64,637.2,3599.0,64.5,81.4,0,0,0
1772701332.0,467.3,24103.8,0.19,-1.53,214.98,0.196,-0.435,1.162,80.17,632.6,4554.7,66.0,74.6,0,0,0
1772701333.0,500.78,25493.6,-0.86,16.19,187.8,-0.349,0.217,1.146,76.24,653.7,3920.0,73.6,75.4,0,0,0
1772701334.0,484.88,26840.2,3.92,-3.64,149.72,-0.543,-0.197,1.126,76.73,610.9,3797.5,64.6,88.2,0,0,0
1772701335.0,455.91,24665.9,-3.21,8.62,153.34,-0.324,0.006,0.578,79.98,668.8,3465.8,67.0,88.2,0,0,0
1772701336.0,434.15,24695.2,0.32,4.73,33.49,-0.069,0.34,0.722,79.62,633.2,3610.0,62.3,83.2,0,0,0
1772701337.0,435.08,28847.2,-0.31,4.73,96.14,-0.061,-0.041,1.374,85.6,619.3,3765.5,62.6,81.4,0,0,0
1772701338.0,475.8,25662.2,2.67,-14.3,93.93,0.156,0.043,1.226,78.36,668.7,3765.9,63.6,69.2,0,0,0
1772701339.0,467.7,26595.3,1.45,-5.86,347.58,-0.16,0.118,0.859,86.39,599.1,3548.5,65.0,94.5,0,0,0
1772701340.0,483.09,26907.4,1.56,-5.08,326.74,0.513,-0.215,0.282,76.87,636.0,3998.5,66.0,80.6,0,0,0
1772701341.0,408.28,24288.2,0.21,8.39,265.39,-0.119,0.205,0.927,82.56,678.3,3510.2,66.9,82.6,0,0,0
1772701342.0,450.82,21128.5,0.67,13.1,122.41,0.046,-0.294,1.48,79.9,668.8,3882.2,67.1,83.8,0,0,0
1772701343.0,430.15,23138.2,-0.44,-17.72,33.88,0.24,-0.055,0.403,86.05,610.1,4083.7,66.9,90.8,0,0,0
1772701344.0,422.89,25233.8,-0.92,7.07,44.36,-0.12,-0.468,0.2,83.21,684.0,3793.8,64.6,77.6,0,0,0
1772701345.0,470.28,32840.9,4.18,3.34,134.35,-0.055,0.037,0.912,80.95,675.2,4051.7,62.0,75.6,0,0,0
1772701346.0,438.61,31513.9,1.08,6.84,247.51,-0.25,-0.1,1.385,80.24,644.5,3929.2,68.9,79.8,0,0,0
1772701347.0,453.08,25852.7,-1.14,-0.26,325.94,-0.523,-0.701,0.724,81.34,703.3,4166.8,65.6,100.0,0,0,0
1772701348.0,458.8,26560.7,0.41,3.95,142.15,0.162,-0.193,0.646,79.15,606.0,4471.3,59.5,97.2,0,0,0
1772701349.0,453.18,29692.3,-2.04,7.86,269.09,-0.221,-0.688,0.765,83.8,660.8,3182.3,71.0,86.4,0,0,0
1772701350.0,486.61,24481.5,-2.65,-12.58,303.63,0.092,-0.278,1.033,77.74,614.1,3868.8,62.2,68.1,0,0,0
1772701351.0,461.57,24889.0,3.1,-2.26,167.25,0.038,0.303,1.776,80.78,657.2,3798.9,60.5,87.1,0,0,0
1772701352.0,447.79,31120.9,-2.03,-0.55,68.47,-0.332,-0.319,1.07,79.93,701.8,3451.9,68.1,78.6,0,0,0
1772701353.0,415.65,26523.4,-1.53,-3.12,27.92,-0.124,0.471,0.962,79.65,659.7,3523.6,66.6,86.6,0,0,0
1772701354.0,460.16,28146.0,-0.31,13.2,170.63,0.034,-0.494,0.804,79.24,679.8,3718.7,61.7,76.7,0,0,0
1772701355.0,399.6,27086.6,1.56,-6.03,336.53,-0.088,0.281,1.392,79.28,686.9,3339.7,65.2,87.4,0,0,0
1772701356.0,423.56,28787.7,-2.2,-19.15,123.37,0.174,0.005,1.347,79.07,659.3,3617.6,66.1,85.9,0,0,0
1772701357.0,442.97,26459.7,-1.24,8.24,211.06,0.588,-0.175,1.359,81.04,678.3,3962.1,59.0,91.0,0,0,0
1772701358.0,470.47,24407.7,-0.85,4.48,280.42,0.103,0.195,0.2,80.81,687.4,3736.5,64.7,84.5,0,0,0
1772701359.0,470.33,27808.2,2.2,7.3,258.21,0.361,-0.22,0.947,82.79,626.5,3631.4,68.4,86.8,0,0,0
1772701360.0,451.43,26604.2,1.47,-1.4,171.98,0.429,-0.157,0.444,80.95,655.3,3860.3,63.4,83.4,0,0,0
1772701361.0,422.22,31553.7,1.63,-12.37,325.48,0.147,0.15,0.934,76.85,655.8,4401.4,61.9,83.9,0,0,0
1772701362.0,440.1,28357.7,3.9,-7.88,291.22,-0.326,-0.286,0.2,82.27,644.5,4390.3,69.2,73.8,0,0,0
1772701363.0,478.46,29277.9,-2.76,-7.03,233.5,0.342,-0.618,0.33,82.24,592.7,4269.4,69.8,80.7,0,0,0
1772701364.0,483.36,21841.8,2.44,-2.81,239.79,-0.058,-0.119,1.311,80.25,692.9,3981.1,59.9,83.8,0,0,0
1772701365.0,463.36,22677.9,0.12,12.63,327.4,0.025,0.221,1.441,83.51,691.8,3662.5,70.5,85.1,0,0,0
1772701366.0,405.85,24531.0,1.35,14.04,20.93,0.116,0.046,1.706,83.43,642.3,4205.3,64.7,86.3,0,0,0
1772701367.0,432.3,29878.0,-0.93,-23.15,274.81,0.277,0.149,1.344,77.85,628.2,4140.8,58.6,99.0,0,0,0
1772701368.0,465.94,25496.9,0.58,19.05,326.73,-0.235,0.566,1.442,78.76,681.0,3767.3,65.5,97.0,0,0,0
1772701369.0,454.23,23081.2,-0.68,-10.68,18.84,-0.088,0.279,1.268,81.26,610.3,3592.2,70.9,88.2,0,0,0
1772701370.0,475.68,24623.3,-0.3,-3.24,107.72,0.462,0.699,0.428,83.36,645.0,4191.4,64.3,97.6,0,0,0
1772701371.0,417.77,23987.2,3.52,4.68,147.07,-0.44,-0.272,1.634,76.58,644.7,3927.7,68.1,84.7,0,0,0
1772701372.0,406.14,20264.3,5.65,-12.34,51.04,0.28,-0.264,0.915,82.61,660.1,3637.5,64.6,89.8,0,0,0
1772701373.0,484.84,29761.6,0.96,-1.66,67.38,-0.044,-0.473,1.79,75.14,652.8,3600.1,61.1,73.9,0,0,0
1772701374.0,482.63,27746.2,-4.15,12.97,281.22,0.987,-0.012,0.762,79.02,679.1,3798.6,71.2,85.3,0,0,0
1772701375.0,446.71,25763.8,1.14,-4.58,266.69,-0.137,0.572,0.576,76.36,676.4,3033.9,66.0,89.1,0,0,0
1772701376.0,454.78,20852.5,3.95,-7.08,194.56,-0.294,0.099,1.092,81.74,632.7,3396.5,63.6,86.0,0,0,0
1772701377.0,400.01,28925.6,0.35,-1.29,125.91,-0.001,-0.377,0.955,84.26,656.1,3649.1,65.6,90.5,0,0,0
1772701378.0,451.79,28351.5,0.81,-4.73,212.91,-0.19,-0.159,1.109,83.44,614.0,3923.7,62.5,100.5,0,0,0
1772701379.0,432.71,24039.5,0.14,-14.48,293.47,0.238,-0.205,1.331,83.48,621.6,3556.6,62.1,83.3,0,0,0
1772701380.0,475.91,22246.3,0.15,11.79,22.31,0.075,0.057,1.418,79.43,700.2,3452.5,66.8,89.6,0,0,0
1772701381.0,424.66,20811.7,1.39,0.36,166.87,0.379,0.385,1.589,71.75,657.6,3302.8,70.2,97.5,0,0,0
1772701382.0,457.57,27465.0,0.57,14.85,31.68,0.108,-0.237,0.672,80.7,641.4,3697.5,64.8,99.9,0,0,0
1772701383.0,469.67,22062.5,-1.11,-9.61,312.44,0.622,-0.18,1.01,78.97,606.2,3554.5,62.1,87.1,0,0,0
1772701384.0,430.48,22297.2,1.78,-5.89,41.26,0.463,-0.46,0.764,80.62,637.1,3536.0,62.6,88.0,0,0,0
1772701385.0,445.79,19516.9,1.91,11.14,275.29,0.021,0.525,1.704,73.47,617.3,3806.3,67.6,89.4,0,0,0
1772701386.0,402.78,27114.0,2.47,10.55,222.51,-0.233,0.128,0.948,82.7,659.4,3729.7,60.1,89.9,0,0,0
1772701387.0,363.08,25694.4,-2.38,12.19,23.37,-0.76,0.012,1.727,81.76,622.3,4003.7,59.5,78.4,0,0,0
1772701388.0,440.2,24524.7,-0.23,-11.07,204.85,0.195,-0.443,1.16,79.29,602.9,3702.8,58.9,82.4,0,0,0
1772701389.0,452.36,27595.2,3.03,-1.82,336.14,-0.205,0.273,0.472,76.72,680.1,3880.2,65.7,84.4,0,0,0
1772701390.0,450.3,28063.8,0.01,-8.41,341.63,0.45,-0.277,0.54,79.79,642.6,3780.1,67.3,85.7,0,0,0
1772701391.0,416.55,23762.9,0.52,-0.35,207.74,0.303,-0.729,0.77,83.7,688.2,3751.8,66.3,96.0,0,0,0
1772701392.0,472.69,31844.1,0.57,7.52,357.05,-0.155,-0.03,1.277,82.5,664.4,4078.9,56.6,89.4,0,0,0
1772701393.0,427.0,22697.9,3.07,-13.41,100.86,0.36,-0.382,1.024,85.24,646.3,4431.7,59.8,84.5,0,0,0
1772701394.0,459.25,21176.6,1.81,9.34,94.56,-0.054,-0.111,1.519,82.47,625.1,4113.6,65.1,88.1,0,0,0
1772701395.0,464.08,27748.2,5.05,5.06,5.74,0.063,0.304,1.256,80.09,643.7,3384.7,63.1,81.5,0,0,0
1772701396.0,431.63,26374.5,0.92,2.88,138.36,-0.204,0.069,0.998,80.59,634.3,4033.0,64.0,89.8,0,0,0
1772701397.0,443.54,25711.8,-0.77,-15.01,85.86,0.275,-0.211,0.858,81.65,593.6,3681.7,62.0,78.8,0,0,0
1772701398.0,441.69,22549.6,3.09,0.65,263.64,0.286,0.383,0.799,78.81,596.7,4043.9,65.1,91.7,0,0,0
1772701399.0,472.86,19170.7,4.5,-4.14,12.35,0.008,-0.474,0.878,80.6,661.5,3975.9,64.1,76.9,0,0,0
1772701400.0,472.06,18883.3,-0.77,-1.81,198.51,-0.26,0.366,0.877,82.79,595.9,4587.0,77.2,91.5,0,0,0
1772701401.0,451.25,23731.9,3.98,-12.93,328.56,-0.177,-0.009,1.0,80.95,613.5,4180.3,54.2,71.1,0,0,0
1772701402.0,428.4,26254.3,3.49,-5.02,79.74,0.333,0.269,1.101,77.28,611.4,3763.0,67.2,96.4,0,0,0
1772701403.0,490.89,30019.6,0.88,8.74,264.49,-0.077,0.5,0.701,81.21,641.7,3852.2,75.9,91.9,0,0,0
1772701404.0,477.79,22463.1,-0.28,-5.69,167.42,-0.202,0.218,0.927,79.55,677.1,3575.0,70.6,96.0,0,0,0
1772701405.0,473.06,22871.1,-1.89,8.01,53.4,-0.448,-0.261,1.951,82.97,694.2,3812.6,64.8,85.0,0,0,0
1772701406.0,445.04,30679.4,1.17,-5.99,115.71,0.312,0.122,0.2,80.92,631.7,3709.3,60.4,83.5,0,0,0
1772701407.0,445.87,26965.7,3.85,4.69,267.18,-0.199,-0.488,1.171,73.27,679.9,3427.9,72.8,82.1,0,0,0
1772701408.0,424.39,27550.3,3.76,5.74,111.45,0.251,0.049,0.441,76.54,671.1,4026.6,70.2,99.8,0,0,0
1772701409.0,382.88,23302.2,4.52,1.7,237.16,-0.046,0.347,1.084,81.58,688.1,3370.8,58.4,79.7,0,0,0
1772701410.0,481.72,22655.5,-1.69,5.82,196.33,-0.199,-0.049,0.601,79.66,640.2,3143.7,62.9,82.1,0,0,0
1772701411.0,399.94,28856.0,-1.3,-8.95,192.92,0.088,-0.002,1.023,76.69,668.3,4035.6,67.9,82.7,0,0,0
1772701412.0,466.85,26133.4,0.04,4.06,152.82,0.606,0.549,1.001,76.9,601.9,3704.9,68.9,82.4,0,0,0
1772701413.0,455.25,28480.3,3.0,-19.5,1.01,-0.438,-0.221,0.831,83.69,661.7,3893.5,61.3,85.8,0,0,0
1772701414.0,464.26,23993.5,0.54,-7.41,4.9,0.197,0.496,1.783,80.17,625.0,3297.3,70.6,83.0,0,0,0
1772701415.0,492.65,26193.2,6.08,11.2,88.56,-0.093,-0.127,1.347,81.64,648.0,3695.6,66.0,92.6,0,0,0
1772701416.0,498.95,26475.0,0.92,-11.96,176.08,0.312,0.118,0.895,79.36,611.0,3531.2,63.6,72.0,0,0,0
1772701417.0,460.5,22841.4,-3.7,17.26,228.33,-0.428,0.006,0.733,77.85,707.3,3804.5,65.8,90.5,0,0,0
1772701418.0,451.73,30951.5,6.95,16.71,196.87,-0.337,0.184,0.798,84.53,677.7,3738.3,68.2,87.3,0,0,0
1772701419.0,493.17,27950.6,-0.97,4.96,32.45,-0.39,0.038,1.514,75.57,645.2,3425.2,68.5,78.4,0,0,0
1772701420.0,410.31,31776.1,-0.52,9.92,249.62,0.131,0.104,1.239,77.28,650.8,4021.5,64.7,97.2,0,0,0
1772701421.0,420.94,24217.4,2.3,15.67,226.36,0.441,0.069,0.744,79.85,668.4,3629.5,59.2,93.8,0,0,0
1772701422.0,433.97,24250.6,3.49,9.73,36.47,-0.513,0.178,0.987,80.17,715.3,3497.7,66.8,81.0,0,0,0
1772701423.0,479.86,19875.2,3.47,6.51,204.57,-0.415,-0.153,0.914,78.14,646.4,3684.9,72.4,82.7,0,0,0
1772701424.0,419.07,25360.4,0.02,11.89,116.39,0.197,0.033,1.227,77.23,678.1,3723.9,58.2,95.7,0,0,0
1772701425.0,465.06,28499.8,0.06,-0.51,176.09,0.089,0.193,1.678,76.48,685.6,3651.1,71.2,81.6,0,0,0
1772701426.0,480.49,24345.2,2.48,1.26,93.73,-0.419,-0.161,0.99,78.3,641.7,4137.1,64.6,74.8,0,0,0
1772701427.0,456.25,20769.8,-3.55,3.2,359.82,-0.46,0.153,0.863,81.81,640.5,3559.9,70.4,80.2,0,0,0
1772701428.0,482.16,24419.2,2.19,7.47,320.38,-0.129,-0.271,0.413,81.34,593.9,3591.7,65.0,82.8,0,0,0
1772701429.0,498.89,25826.7,3.87,-10.33,119.32,-0.459,0.046,1.036,82.07,622.6,3277.2,67.8,83.0,0,0,0
1772701430.0,471.03,21946.8,1.82,-0.92,327.47,-0.237,0.083,0.657,77.72,713.1,3691.6,68.1,103.2,0,0,0
1772701431.0,428.54,27244.1,2.39,8.58,117.07,-0.143,0.296,0.621,79.18,649.1,4176.3,66.9,89.5,0,0,0
1772701432.0,490.37,23345.1,-0.23,15.57,57.23,-0.244,0.693,1.67,80.3,684.3,3740.6,64.2,90.7,0,0,0
1772701433.0,496.9,27122.9,1.42,10.88,45.11,-0.16,0.028,1.091,81.09,720.0,3868.4,69.6,84.6,0,0,0
1772701434.0,497.78,24745.0,0.92,-8.58,169.23,-0.39,0.464,0.594,74.84,683.5,4148.9,60.6,81.4,0,0,0
1772701435.0,463.08,27453.4,-2.12,1.82,308.54,-0.005,-0.398,0.634,79.96,658.6,3394.0,63.8,82.3,0,0,0
1772701436.0,446.16,24573.2,1.46,-2.14,86.16,0.65,-0.013,0.882,81.23,675.7,3624.3,60.8,75.4,0,0,0
1772701437.0,455.2,23156.6,0.34,-8.43,275.39,0.264,-0.291,0.385,74.41,620.7,3187.7,63.0,77.5,0,0,0
1772701438.0,447.87,29312.9,3.57,-3.28,58.93,0.689,0.469,1.423,80.85,576.2,3999.9,68.6,73.8,0,0,0
1772701439.0,461.78,25100.1,-0.22,7.67,70.15,0.141,-0.605,1.408,83.92,633.0,4141.4,60.5,84.1,0,0,0
1772701440.0,496.54,27064.0,1.63,6.12,185.13,0.07,0.409,1.383,78.78,653.4,3872.5,62.8,95.4,0,0,0
1772701441.0,477.77,25506.3,2.28,3.75,351.82,-0.42,-0.345,0.578,78.48,648.5,4549.4,78.6,77.1,0,0,0
1772701442.0,520.2,20835.9,0.36,13.04,147.02,-0.066,0.039,0.992,82.58,596.8,3949.7,70.3,79.9,0,0,0
1772701443.0,443.71,21828.5,4.85,-22.71,217.81,-0.077,0.118,0.773,82.59,646.6,3649.0,51.7,85.0,0,0,0
1772701444.0,454.36,29542.1,1.73,-4.6,10.61,0.348,-0.315,1.132,73.85,639.8,3897.8,69.2,75.4,0,0,0
1772701445.0,406.07,30669.8,1.83,-0.02,327.07,-0.464,0.145,1.096,77.34,694.3,3860.7,59.4,87.2,0,0,0
1772701446.0,460.93,26354.5,1.87,6.33,213.51,-0.268,-0.234,0.46,77.71,680.0,3732.8,59.1,87.0,0,0,0
1772701447.0,465.33,18092.7,2.45,9.14,267.21,0.057,-0.131,0.927,80.02,653.0,3951.5,62.7,86.0,0,0,0
1772701448.0,494.42,23372.8,-1.81,-19.82,8.05,-0.259,-0.027,0.617,76.64,660.6,4201.9,64.3,78.6,0,0,0
1772701449.0,480.62,26261.5,2.64,-2.52,259.7,0.094,-0.146,0.862,79.02,665.9,3962.8,66.6,86.6,0,0,0
1772701450.0,475.43,24890.6,-2.73,-8.65,20.89,-0.139,-0.01,0.478,80.25,639.9,3306.1,64.3,92.6,0,0,0
1772701451.0,408.41,26371.3,0.41,7.96,28.41,0.098,-0.096,1.575,79.1,630.2,3409.8,67.8,97.8,0,0,0
1772701452.0,502.32,25412.9,1.86,5.25,265.74,-0.042,-0.105,1.311,78.0,633.1,3699.8,67.8,78.8,0,0,0
1772701453.0,428.89,21031.7,-3.49,-5.09,179.75,0.42,0.682,0.66,81.08,658.2,3813.7,57.4,74.2,0,0,0
1772701454.0,457.67,24118.7,2.33,1.37,336.06,0.396,-0.187,1.374,77.32,632.5,3433.7,68.7,81.8,0,0,0
1772701455.0,425.97,23687.2,1.97,4.12,324.61,0.156,-0.391,1.515,77.85,699.4,3240.7,73.6,81.2,0,0,0
1772701456.0,452.3,27970.7,0.23,0.5,286.28,-0.196,-0.07,1.332,74.24,641.0,3358.3,61.2,99.5,0,0,0
1772701457.0,462.42,21842.4,-3.24,9.47,303.27,-0.242,-0.084,0.788,76.99,652.8,3639.3,71.3,78.2,0,0,0
1772701458.0,369.93,23264.2,2.8,0.24,50.87,-0.426,0.201,1.598,79.8,700.2,3592.8,62.2,104.9,0,0,0
1772701459.0,433.41,30227.3,1.3,-0.28,346.51,0.069,-0.118,1.359,80.74,618.9,3597.8,64.6,94.4,0,0,0
1772701460.0,545.01,24050.9,1.61,11.32,33.73,0.288,0.266,1.382,85.31,622.3,3458.3,56.5,75.7,0,0,0
1772701461.0,497.53,20929.9,3.36,0.19,168.72,0.398,1.0,1.109,82.5,660.2,3719.8,61.2,76.8,0,0,0
1772701462.0,499.96,26181.2,-0.5,4.38,160.46,0.058,0.299,0.2,81.41,710.3,3804.7,60.5,80.3,0,0,0
1772701463.0,495.83,19878.5,4.11,9.94,127.86,-0.03,0.098,0.988,77.75,652.3,3625.9,69.1,80.6,0,0,0
1772701464.0,460.68,35255.1,-0.41,-6.06,255.1,-0.667,-0.037,0.442,76.33,619.6,4547.9,59.2,86.6,0,0,0
1772701465.0,468.41,21202.6,1.96,-13.48,242.53,-0.028,-0.36,0.93,82.06,617.0,4034.4,67.6,90.4,0,0,0
1772701466.0,417.64,24063.6,2.04,0.89,204.38,0.278,-0.32,0.634,85.9,643.5,3673.9,66.5,82.9,0,0,0
1772701467.0,473.26,25761.7,5.2,-2.84,69.01,-0.168,0.023,1.046,88.13,665.1,3552.0,60.9,84.2,0,0,0
1772701468.0,466.05,27986.2,2.15,-3.62,53.5,-0.389,0.433,1.067,77.39,680.6,4398.0,58.4,82.1,0,0,0
1772701469.0,490.53,25353.2,1.46,-2.81,21.69,-0.177,-0.066,0.92,78.08,634.3,4034.8,68.6,101.8,0,0,0
1772701470.0,443.2,21170.5,1.15,-14.41,337.67,0.093,-0.438,0.509,80.4,646.6,3897.7,71.6,76.7,0,0,0
1772701471.0,437.04,27037.4,2.82,4.03,109.42,0.025,0.346,1.571,79.61,608.1,3939.9,65.2,95.4,0,0,0
1772701472.0,402.7,31796.8,0.83,-0.16,192.06,0.345,-0.394,0.824,81.96,693.2,3917.8,66.7,84.6,0,0,0
1772701473.0,455.74,25370.3,-1.84,-22.06,254.19,0.481,-0.049,1.006,81.9,633.4,3661.3,63.5,84.6,0,0,0
1772701474.0,458.35,27753.7,0.5,13.19,159.32,0.34,-0.232,0.436,79.2,611.3,3721.9,73.1,66.9,0,0,0
1772701475.0,441.94,23252.8,-0.59,1.61,304.53,0.415,-0.068,1.447,77.01,629.8,3610.1,70.5,77.5,0,0,0
1772701476.0,450.58,27837.8,0.71,-1.83,247.08,0.021,-0.052,0.669,85.35,584.3,3602.2,62.6,66.4,0,0,0
1772701477.0,485.42,19154.0,4.29,-16.56,61.17,-0.105,-0.349,0.726,81.3,656.3,3973.6,63.7,81.0,0,0,0
1772701478.0,415.91,27802.1,1.5,-4.19,109.51,-0.246,-0.413,1.139,78.07,628.8,3749.9,62.5,80.0,0,0,0
1772701479.0,463.23,27783.4,-0.66,-16.27,61.12,0.458,0.189,0.235,76.55,702.1,3473.2,69.1,86.7,0,0,0
1772701480.0,454.28,26539.8,2.5,14.16,225.73,-0.604,-0.124,1.349,81.6,630.2,3864.3,62.2,72.7,0,0,0
1772701481.0,466.19,22387.2,1.4,-16.38,172.09,-0.133,-0.445,0.721,77.33,655.0,3443.9,64.5,88.3,0,0,0
1772701482.0,437.3,20756.1,0.58,6.8,135.16,0.09,0.052,1.375,83.57,661.5,3592.2,61.9,93.2,0,0,0
1772701483.0,436.24,32604.9,5.41,-9.62,117.54,-0.15,0.051,0.817,86.25,715.4,3599.6,53.8,88.6,0,0,0
1772701484.0,439.81,29034.0,-0.19,4.62,70.79,0.144,0.122,0.893,81.26,593.2,3620.8,63.4,84.2,0,0,0
1772701485.0,424.57,22164.8,3.34,0.61,153.4,-0.171,0.3,1.549,76.6,625.3,3859.4,73.0,85.1,0,0,0
1772701486.0,432.97,24482.5,5.28,-8.2,94.34,0.476,-0.223,1.497,81.08,676.8,3876.8,54.6,91.7,0,0,0
1772701487.0,387.09,30385.3,-2.23,-2.31,36.37,0.045,0.216,0.807,84.95,618.1,4376.7,61.3,84.6,0,0,0
1772701488.0,444.46,20922.8,2.27,10.28,170.89,0.168,0.615,1.211,78.75,679.4,3621.5,71.1,94.2,0,0,0
1772701489.0,484.74,23790.8,4.36,-12.05,214.23,0.382,-0.239,0.892,82.03,657.9,4202.0,72.6,70.4,0,0,0
1772701490.0,404.8,22266.6,1.48,6.37,295.21,0.044,0.34,1.052,79.54,638.6,3500.6,63.7,94.9,0,0,0
1772701491.0,425.12,24916.2,1.13,4.82,36.92,-0.031,0.449,1.381,78.5,683.0,3233.1,70.0,94.9,0,0,0
1772701492.0,399.18,30957.4,-1.07,-5.16,306.42,0.016,-0.476,0.2,75.91,649.2,3647.1,72.8,99.2,0,0,0
1772701493.0,444.51,23277.3,2.79,6.64,279.17,-0.073,0.004,1.955,76.71,639.8,3849.2,73.6,83.6,0,0,0
1772701494.0,406.81,20187.9,0.74,5.93,307.76,-0.03,0.339,0.62,77.96,653.3,3431.7,64.8,88.9,0,0,0
1772701495.0,436.15,25951.0,3.18,13.32,282.25,-0.288,-0.196,0.2,79.11,682.4,3831.5,67.4,97.7,0,0,0
1772701496.0,457.41,23729.1,1.36,-14.38,312.26,0.269,-0.03,1.216,75.89,677.6,4077.5,68.0,98.7,0,0,0
1772701497.0,428.06,19066.5,0.3,14.91,167.76,-0.331,0.393,0.933,80.22,659.1,4166.7,76.3,93.9,0,0,0
1772701498.0,458.11,18009.3,-3.7,3.43,101.75,0.334,-0.01,0.365,84.42,674.5,3889.7,59.0,94.0,0,0,0
1772701499.0,489.52,22340.7,2.06,10.74,57.71,0.0,0.013,1.992,76.08,693.4,3740.8,63.3,94.9,0,0,0
1772701500.0,497.12,26656.8,-1.53,15.69,243.86,-0.487,0.052,1.025,77.33,621.0,3881.3,60.7,89.8,0,0,0
1772701501.0,434.36,24381.0,1.54,6.85,359.05,-0.139,0.64,0.218,76.39,665.9,3782.1,69.3,94.7,0,0,0
1772701502.0,462.18,21574.0,-2.94,0.04,105.1,0.107,0.142,1.382,74.11,654.0,3342.5,64.1,104.4,0,0,0
1772701503.0,450.71,25345.8,4.9,11.81,49.76,-0.606,-0.215,1.144,81.79,670.5,3949.8,68.6,65.6,0,0,0
1772701504.0,450.43,22481.4,1.0,-12.26,123.78,-1.0,-0.457,0.326,78.36,647.3,3785.1,72.9,87.4,0,0,0
1772701505.0,456.06,24684.0,1.2,-6.43,143.62,-0.085,-0.128,0.736,82.98,618.9,3888.7,74.2,87.6,0,0,0
1772701506.0,443.53,24486.5,-1.5,-9.88,221.86,-0.05,-0.494,0.382,82.16,720.0,3828.6,61.1,71.2,0,0,0
1772701507.0,509.04,22748.2,3.64,-4.67,299.99,0.549,-0.123,0.982,78.2,633.6,3864.2,70.0,79.0,0,0,0
1772701508.0,442.44,23432.8,2.13,-3.12,349.81,-0.348,0.062,1.239,74.04,629.0,3308.4,62.2,87.0,0,0,0
1772701509.0,404.56,18454.0,0.13,-6.64,92.63,0.142,-0.465,1.221,77.67,670.3,3966.3,63.0,94.7,0,0,0
1772701510.0,435.98,25201.1,-0.7,-28.45,94.3,-0.067,-0.144,1.651,79.61,699.8,3341.2,60.4,60.6,0,0,0
1772701511.0,442.6,24850.0,-0.77,-7.35,280.94,0.257,-0.367,0.297,82.82,598.5,3894.7,64.9,84.6,0,0,0
1772701512.0,483.61,23995.4,-0.33,29.4,236.04,0.069,-0.475,0.91,85.17,677.0,3834.3,60.8,102.9,0,0,0
1772701513.0,473.22,15935.0,2.57,-2.58,202.71,-0.547,0.211,0.443,78.13,709.7,3636.2,53.7,93.6,0,0,0
1772701514.0,445.77,22413.3,2.43,-6.37,170.75,0.065,0.058,0.9,80.67,683.0,4004.0,66.5,79.6,0,0,0
1772701515.0,453.34,25718.6,2.85,7.37,312.46,0.388,-0.112,0.2,70.0,656.9,3786.6,71.8,78.5,0,0,0
1772701516.0,507.18,21573.8,1.62,-16.81,200.42,0.522,-0.215,1.102,79.67,625.3,4105.2,62.1,78.1,0,0,0
1772701517.0,509.93,25049.0,-0.72,-4.97,160.61,-0.14,-0.046,1.149,79.99,681.8,3901.4,60.5,91.9,0,0,0
1772701518.0,443.68,31740.4,2.03,-10.59,348.78,-0.014,-0.143,1.97,81.07,659.0,3547.5,61.1,70.2,0,0,0
1772701519.0,450.73,22476.6,2.79,5.94,202.41,-0.343,-0.493,1.836,74.08,657.4,3886.0,72.4,78.0,0,0,0
1772701520.0,432.2,27096.0,1.18,4.29,195.64,-0.211,-0.01,1.288,84.72,659.8,3462.6,69.1,72.8,0,0,0
1772701521.0,447.21,28814.6,-0.22,10.99,69.31,-0.839,-0.074,1.303,80.2,641.2,3581.7,70.4,76.3,0,0,0
1772701522.0,449.57,25349.1,2.07,2.59,324.31,0.115,-0.7,0.625,79.73,631.1,3567.8,69.3,74.1,0,0,0
1772701523.0,494.3,26557.3,0.13,-1.14,282.16,0.092,0.005,0.392,80.95,720.0,4398.7,66.5,79.9,0,0,0
1772701524.0,494.86,28549.2,-0.02,-6.08,261.26,0.313,0.275,1.712,80.35,623.2,3875.6,72.8,78.0,0,0,0
1772701525.0,459.57,24550.2,-1.89,-4.36,19.68,-0.228,-0.482,0.993,74.08,660.3,4248.4,68.6,96.3,0,0,0
1772701526.0,471.04,22526.2,-5.29,-2.06,166.74,0.315,-0.313,0.785,80.99,627.1,4212.8,68.9,79.6,0,0,0
1772701527.0,513.96,23995.1,2.97,-18.09,226.1,0.14,-0.247,0.484,80.25,645.4,3698.7,62.2,93.8,0,0,0
1772701528.0,527.65,20505.6,2.49,1.26,1.78,0.065,-0.047,1.773,80.96,591.0,3859.8,72.8,89.6,0,0,0
1772701529.0,495.98,25112.3,0.38,-1.58,81.7,-0.082,-0.406,0.2,80.54,672.8,4362.3,64.3,86.6,0,0,0
1772701530.0,453.12,21537.3,0.41,-11.53,226.35,0.289,0.039,0.56,78.96,642.5,3677.7,58.2,95.9,0,0,0
1772701531.0,430.5,23378.8,1.78,20.11,47.69,-0.073,-0.053,1.251,81.54,619.8,3979.9,63.0,89.8,0,0,0
1772701532.0,432.62,29123.8,3.0,-10.5,100.98,-0.464,-0.029,1.055,77.98,652.8,3950.7,73.9,81.3,0,0,0
1772701533.0,470.49,25589.1,1.44,-5.64,210.44,0.055,0.109,1.074,77.17,668.4,3822.4,66.1,73.5,0,0,0
1772701534.0,467.26,23507.8,3.8,6.65,282.72,0.009,0.069,1.088,80.61,633.8,3985.4,66.4,91.6,0,0,0
1772701535.0,479.22,25123.0,1.18,8.41,13.66,-0.039,-0.36,0.571,76.27,673.5,4020.5,71.2,85.5,0,0,0
1772701536.0,497.36,22975.8,1.42,10.94,350.21,-0.457,-0.634,1.183,77.91,685.3,3312.0,67.6,87.7,0,0,0
1772701537.0,409.57,24622.4,2.73,-2.45,357.3,-0.315,-0.329,0.722,73.65,658.8,4293.1,66.4,84.8,0,0,0
1772701538.0,503.35,27626.4,0.66,-0.34,205.29,0.534,0.46,1.681,80.94,678.0,4177.5,66.0,85.9,0,0,0
1772701539.0,393.83,26739.5,-1.43,1.32,282.16,0.203,0.138,0.927,81.24,550.0,3853.5,72.1,86.2,0,0,0
1772701540.0,430.29,28296.8,2.67,-5.83,138.31,-0.262,0.546,1.347,85.47,692.2,3800.0,66.4,80.8,0,0,0
1772701541.0,497.95,24001.9,0.59,-4.19,6.09,-0.156,0.566,1.462,80.86,701.5,4078.7,65.5,98.8,0,0,0
1772701542.0,495.02,26572.1,1.54,9.32,97.27,-0.264,0.085,0.372,82.48,688.9,4292.8,66.7,77.5,0,0,0
1772701543.0,415.43,24156.3,0.73,-3.34,249.33,0.106,0.249,1.305,77.4,691.5,3684.7,68.0,92.6,0,0,0
1772701544.0,456.54,23871.6,0.77,-17.9,250.89,-0.113,0.002,1.105,82.31,624.2,3796.2,54.5,76.3,0,0,0
1772701545.0,493.7,14577.8,1.41,-3.72,17.55,0.271,0.255,1.165,76.33,624.4,3965.9,68.3,80.6,0,0,0
1772701546.0,428.51,25666.1,-1.66,0.8,45.8,0.015,-0.431,0.976,81.41,620.3,3919.9,70.2,91.2,0,0,0
1772701547.0,411.58,26940.7,0.14,15.75,67.98,-0.061,-0.042,1.091,79.96,653.0,4033.5,59.6,92.3,0,0,0
1772701548.0,460.17,26580.0,1.13,-7.84,114.86,-0.244,-0.259,1.574,84.39,604.4,3749.4,68.3,90.9,0,0,0
1772701549.0,466.83,23071.3,1.69,5.79,281.86,0.083,-0.387,1.048,80.12,639.8,3575.8,73.2,74.8,0,0,0
1772701550.0,506.61,22151.6,-0.86,-11.28,11.67,-0.362,-0.121,1.455,78.81,656.2,3312.7,67.1,88.4,0,0,0
1772701551.0,418.38,24266.9,2.22,4.34,201.61,-0.546,0.633,1.415,78.18,717.6,3927.9,58.9,77.1,0,0,0
1772701552.0,408.4,23097.2,0.72,-13.76,320.77,0.259,-0.059,0.653,80.62,647.8,4163.2,56.0,74.8,0,0,0
1772701553.0,445.31,28983.0,3.78,-0.02,270.35,-0.507,0.191,0.976,81.37,619.4,4028.5,74.3,97.7,0,0,0
1772701554.0,403.13,26464.7,1.14,-2.53,217.58,0.368,0.313,0.846,79.43,666.1,4047.6,62.0,86.7,0,0,0
1772701555.0,458.44,26821.3,-0.87,8.17,224.17,-0.632,0.321,0.748,80.05,631.2,4132.6,66.7,98.3,0,0,0
1772701556.0,448.05,26182.4,0.74,12.37,26.47,0.182,-0.324,0.984,71.26,680.9,4059.9,64.2,70.0,0,0,0
1772701557.0,397.19,22093.2,2.2,3.19,262.3,-0.225,0.175,0.449,77.63,605.8,3968.2,68.8,85.1,0,0,0
1772701558.0,490.48,22244.8,2.04,9.26,359.75,0.297,0.13,1.361,88.15,637.6,3455.6,70.9,87.7,0,0,0
1772701559.0,448.65,26076.7,1.32,18.04,250.16,-0.292,-0.219,0.682,80.75,670.6,3861.6,54.0,89.7,0,0,0
1772701560.0,447.64,26269.0,1.23,13.64,284.94,0.513,0.019,1.034,77.77,632.8,3600.5,66.3,91.1,0,0,0
1772701561.0,486.42,25230.1,-0.8,-8.51,173.16,-0.394,0.029,1.41,78.04,636.4,3334.7,62.3,82.7,0,0,0
1772701562.0,454.25,19974.9,-0.19,-10.72,297.82,0.12,0.11,0.624,76.38,632.3,3485.7,63.0,97.5,0,0,0
1772701563.0,423.48,27804.0,1.76,9.33,139.89,-0.348,-0.106,1.943,83.35,626.0,4296.9,60.4,80.3,0,0,0
1772701564.0,417.9,24729.7,2.1,-8.4,22.88,-0.097,0.007,1.251,80.2,610.8,3886.9,63.8,90.1,0,0,0
1772701565.0,409.36,23772.0,-2.01,12.55,334.06,0.045,-0.058,1.041,80.31,622.2,4234.7,77.2,74.1,0,0,0
1772701566.0,485.3,26269.7,-1.6,4.49,85.53,0.286,0.26,1.105,75.91,626.2,3906.7,66.6,83.8,0,0,0
1772701567.0,483.63,23084.1,-1.47,2.59,298.53,-0.04,0.022,1.494,79.41,712.7,3847.6,62.6,78.0,0,0,0
1772701568.0,416.68,25350.4,2.16,2.34,264.09,-0.4,0.264,1.377,80.37,614.8,3813.5,72.6,70.0,0,0,0
1772701569.0,487.27,31371.0,-0.16,4.15,140.28,-0.228,-0.428,0.774,77.21,689.4,4062.5,70.1,80.3,0,0,0
1772701570.0,470.12,27019.4,1.74,0.71,279.75,-0.187,-0.191,0.991,81.68,691.1,3798.6,64.2,93.0,0,0,0
1772701571.0,415.02,20832.2,1.91,-1.98,239.27,0.474,-0.126,0.276,80.49,626.9,3726.4,65.0,72.1,0,0,0
1772701572.0,402.38,29616.4,1.71,-17.23,175.59,-0.308,0.127,0.614,78.27,683.6,3676.9,70.5,71.1,0,0,0
1772701573.0,397.77,18770.5,-0.14,-6.04,294.66,0.167,-0.027,0.734,84.52,640.6,3579.2,65.0,72.6,0,0,0
1772701574.0,426.45,22628.1,1.66,8.46,158.48,-0.338,-0.568,1.255,79.97,647.8,3918.1,57.2,94.9,0,0,0
1772701575.0,434.88,26501.1,-0.56,8.17,40.45,-0.123,0.254,1.088,80.79,613.8,3874.6,63.2,76.8,0,0,0
1772701576.0,441.55,22046.1,1.83,12.06,77.22,-0.221,0.033,0.651,77.34,629.2,3739.5,64.0,98.1,0,0,0
1772701577.0,488.55,26420.0,4.05,9.53,309.82,-0.209,0.298,0.536,75.56,647.7,3407.7,58.0,86.7,0,0,0
1772701578.0,501.21,23263.5,-0.73,7.65,222.72,-0.309,0.018,0.868,84.05,619.1,3794.6,54.8,82.7,0,0,0
1772701579.0,451.84,27114.4,-2.42,15.48,322.52,0.019,0.049,0.727,82.2,688.9,3734.5,58.9,80.7,0,0,0
1772701580.0,500.88,22802.0,-1.29,-13.13,212.15,0.655,-0.135,1.023,74.08,643.4,3851.3,71.3,85.9,0,0,0
1772701581.0,438.69,27128.8,-2.63,-1.05,157.1,-0.101,0.245,1.789,79.05,681.9,3926.1,62.6,91.0,0,0,0
1772701582.0,514.92,22176.6,1.92,-13.69,159.67,0.019,0.235,1.314,79.57,638.8,3707.2,60.4,93.1,0,0,0
1772701583.0,401.3,18100.2,3.66,-8.2,51.43,0.709,0.013,1.033,78.73,620.7,3815.9,61.2,90.4,0,0,0
1772701584.0,464.84,23353.7,3.13,1.49,271.53,0.014,-0.216,0.61,80.88,624.1,4073.5,60.8,87.0,0,0,0
1772701585.0,462.63,25965.4,3.97,-0.34,136.29,-0.003,0.28,1.632,81.54,675.6,3919.8,64.8,76.4,0,0,0
1772701586.0,486.15,25699.7,-0.68,-6.09,203.04,-0.061,-0.114,0.779,81.63,655.3,4009.4,61.1,72.7,0,0,0
1772701587.0,446.35,28173.0,3.24,-10.55,209.98,-0.166,0.077,1.076,83.12,684.8,3316.9,56.2,85.4,0,0,0
1772701588.0,442.22,26552.0,2.01,-4.37,3.72,0.003,0.235,0.941,82.53,643.7,3827.3,61.7,80.6,0,0,0
1772701589.0,449.61,16943.5,-0.26,2.97,111.56,0.539,-0.011,0.953,83.23,609.8,3722.4,72.2,80.8,0,0,0
1772701590.0,529.22,24124.4,3.32,23.29,159.45,0.538,0.349,0.563,79.84,655.6,4204.4,54.8,91.9,0,0,0
1772701591.0,461.23,26428.1,3.22,-7.75,349.92,0.345,-0.145,1.374,85.75,670.1,3692.4,63.1,95.6,0,0,0
1772701592.0,433.54,21950.8,2.72,9.68,142.18,-0.169,0.444,1.106,77.83,658.3,3737.5,51.7,76.7,0,0,0
1772701593.0,466.01,26300.6,2.03,20.15,236.12,-0.077,0.539,1.245,78.26,645.0,3781.7,59.9,92.4,0,0,0
1772701594.0,450.98,26016.4,-1.27,11.62,298.31,-0.173,0.169,0.892,80.85,593.3,3797.8,58.6,87.1,0,0,0
1772701595.0,415.81,25213.2,1.02,15.17,224.25,-0.281,0.191,0.875,77.19,686.5,3753.7,59.7,82.9,0,0,0
1772701596.0,451.15,24802.4,-1.11,11.4,149.21,0.458,0.408,1.926,80.53,689.1,3633.7,59.9,74.6,0,0,0
1772701597.0,445.32,24442.0,1.12,6.88,80.22,0.065,0.121,0.743,79.23,638.4,3187.8,60.8,95.7,0,0,0
1772701598.0,425.22,20836.8,1.45,-1.2,112.45,-0.484,0.059,0.987,83.67,695.7,3280.1,68.4,87.4,0,0,0
1772701599.0,445.56,29031.2,1.45,9.26,183.63,0.28,0.064,1.247,79.02,659.6,3994.6,61.2,102.8,0,0,0
1772701600.0,472.86,29464.6,-0.51,13.87,15.56,0.069,-0.007,1.478,79.33,672.1,4021.9,68.3,85.8,0,0,0
1772701601.0,436.66,28997.5,-2.96,-9.3,169.71,0.315,0.213,1.354,78.62,680.9,3218.4,61.8,90.0,0,0,0
1772701602.0,457.07,25905.9,-0.92,-12.91,301.31,0.374,-0.261,1.152,83.41,707.0,3562.4,71.9,104.5,0,0,0
1772701603.0,474.17,24429.4,-1.24,-11.56,20.56,-0.267,0.097,1.12,87.28,643.8,4127.3,56.8,93.0,0,0,0
1772701604.0,437.89,25565.5,0.15,7.79,40.92,-0.183,0.105,1.008,80.28,603.7,3264.9,72.2,83.3,0,0,0
1772701605.0,557.23,21958.2,-0.3,-22.88,114.7,-0.077,0.047,0.767,78.44,635.6,3785.9,66.7,82.0,0,0,0
1772701606.0,441.97,28510.6,-1.11,-2.36,83.69,-0.501,0.2,1.087,82.25,627.6,4076.9,66.7,85.5,0,0,0
1772701607.0,476.82,18348.2,4.13,-2.38,134.72,0.075,0.297,1.274,83.92,612.7,4231.7,64.5,88.7,0,0,0
1772701608.0,440.35,24467.0,-1.3,7.4,153.76,-0.331,-0.163,1.632,73.86,653.7,3780.2,71.4,74.8,0,0,0
1772701609.0,436.25,27182.9,4.39,-31.12,14.5,0.301,-0.054,0.903,78.94,643.8,3623.1,62.4,90.2,0,0,0
1772701610.0,385.12,22651.5,1.14,14.05,335.12,-0.496,-0.058,0.616,81.33,651.7,4035.6,60.7,86.2,0,0,0
1772701611.0,431.64,20177.7,-2.44,3.37,153.03,0.192,-0.362,0.2,80.99,602.1,3795.7,63.7,103.9,0,0,0
1772701612.0,459.9,29384.2,2.8,17.46,319.21,-0.115,0.217,0.576,85.05,644.8,4231.3,66.4,74.2,0,0,0
1772701613.0,431.84,23291.8,1.16,6.83,100.27,-0.125,0.058,1.243,77.71,651.4,3544.8,68.5,82.3,0,0,0
1772701614.0,447.45,29991.8,3.65,3.98,259.89,0.001,-0.08,0.859,78.67,631.1,4179.1,52.1,78.3,0,0,0
1772701615.0,438.56,20665.3,1.36,3.22,137.64,-0.234,-0.161,1.053,79.53,656.9,3502.9,58.0,92.9,0,0,0
1772701616.0,398.68,25365.5,4.49,2.09,132.63,-0.008,-0.063,1.187,75.29,597.4,4164.8,56.9,80.3,0,0,0
1772701617.0,505.67,24571.5,1.44,8.79,228.84,-0.457,-0.212,0.545,81.93,679.1,3908.2,65.3,91.5,0,0,0
1772701618.0,449.18,28056.9,3.1,1.69,13.47,0.199,0.629,0.53,84.45,614.5,3964.5,65.2,80.0,0,0,0
1772701619.0,464.37,27807.7,1.03,-3.6,334.94,0.144,-0.233,1.802,82.71,690.2,3742.8,59.6,71.2,0,0,0
1772701620.0,447.91,23515.0,-0.18,5.43,235.03,0.416,0.404,0.753,82.51,604.0,3802.6,62.1,77.8,0,0,0
1772701621.0,500.31,26099.0,1.52,-17.08,327.28,0.315,-0.283,0.786,74.26,652.0,3857.4,69.8,91.0,0,0,0
1772701622.0,479.61,25947.4,1.31,-9.59,309.62,-0.323,-0.148,1.23,80.66,645.7,3913.2,64.5,83.6,0,0,0
1772701623.0,489.5,21901.0,3.03,5.26,1.18,0.299,-0.118,0.2,81.12,676.2,3445.4,69.1,78.0,0,0,0
1772701624.0,457.18,25728.9,3.86,-4.4,250.77,-0.342,0.298,0.82,82.47,657.8,3753.4,65.5,87.5,0,0,0
1772701625.0,398.7,26217.7,4.89,0.03,87.6,0.174,0.293,0.2,80.18,593.6,3945.8,65.4,67.9,0,0,0
1772701626.0,517.26,24684.4,2.39,-9.36,111.58,0.07,-0.32,0.787,77.41,632.1,3186.6,54.0,86.0,0,0,0
1772701627.0,529.09,28475.3,1.35,-3.15,46.55,0.334,-0.284,1.032,81.88,649.1,3653.7,77.7,81.0,0,0,0
1772701628.0,456.41,28133.9,-2.47,-3.68,205.97,0.262,0.037,0.642,73.87,688.5,4036.1,67.7,91.0,0,0,0
1772701629.0,359.63,25844.7,0.94,-1.77,297.71,0.845,-0.068,0.327,84.76,638.7,3488.5,68.2,80.0,0,0,0
1772701630.0,463.32,28195.0,3.06,27.7,359.23,0.017,-0.027,1.041,80.57,635.5,3759.4,64.1,84.5,0,0,0
1772701631.0,442.53,29190.2,-1.22,15.97,65.74,-0.133,0.277,1.735,76.02,621.0,3737.2,59.1,82.2,0,0,0
1772701632.0,472.04,25115.0,0.91,7.93,248.84,0.218,0.072,1.094,79.14,626.7,3957.7,62.5,86.1,0,0,0
1772701633.0,468.69,27107.4,2.48,-5.04,285.37,-0.385,-0.146,1.161,79.62,612.1,3898.5,58.6,87.1,0,0,0
1772701634.0,485.53,20106.1,3.2,11.64,25.98,0.431,-0.068,0.67,82.69,649.8,4174.4,68.5,86.5,0,0,0
1772701635.0,506.35,25811.5,2.16,-4.24,206.66,-0.213,-0.046,1.353,77.18,678.0,4136.1,64.9,83.9,0,0,0
1772701636.0,437.2,22974.7,3.48,-15.83,170.13,0.352,-0.024,0.552,76.74,621.8,3719.0,57.9,85.4,0,0,0
1772701637.0,471.21,25939.7,-0.85,10.11,85.93,-0.145,-0.136,1.781,80.6,649.3,3882.4,62.6,82.0,0,0,0
1772701638.0,403.1,23269.3,3.72,15.9,175.92,0.035,0.084,1.048,85.89,655.8,4205.1,65.6,72.6,0,0,0
1772701639.0,423.67,25696.3,2.29,14.35,99.0,0.305,0.119,0.79,83.27,640.0,3571.1,65.4,94.9,0,0,0
1772701640.0,381.71,21780.3,1.92,6.43,173.81,0.049,0.379,1.008,79.46,653.2,4115.4,67.4,83.3,0,0,0
1772701641.0,409.81,28376.5,0.39,2.46,262.37,-0.255,1.0,1.606,77.66,622.2,4500.8,65.2,84.9,0,0,0
1772701642.0,441.12,27886.2,0.26,0.09,195.13,0.183,0.287,1.386,84.19,606.9,4280.4,63.9,86.5,0,0,0
1772701643.0,385.68,28118.4,-0.21,19.44,36.78,-0.142,-0.074,0.856,79.06,676.9,3784.0,63.9,102.3,0,0,0
1772701644.0,460.81,24899.1,0.71,6.97,182.29,0.033,-0.098,0.727,76.54,606.0,3666.5,58.5,99.4,0,0,0
1772701645.0,511.22,21622.6,-0.07,6.45,51.93,-0.457,0.176,0.701,79.78,708.0,3400.3,64.3,80.7,0,0,0
1772701646.0,441.87,24214.5,4.12,-6.19,166.91,0.007,0.163,1.059,76.38,631.5,3594.1,59.7,91.9,0,0,0
1772701647.0,490.15,23494.6,5.41,7.52,161.46,0.184,0.496,0.879,84.24,659.8,3935.8,67.2,77.7,0,0,0
1772701648.0,441.2,28476.7,2.43,8.25,4.67,-0.18,0.059,0.706,77.08,651.5,3688.7,66.1,81.3,0,0,0
1772701649.0,439.34,20809.0,-0.68,0.27,292.62,-0.097,-0.303,0.901,77.1,673.5,3741.6,65.2,92.8,0,0,0
1772701650.0,450.99,22678.7,1.44,-10.15,177.47,-0.171,-0.392,1.183,75.63,650.0,4086.9,63.8,93.6,0,0,0
1772701651.0,384.01,24059.0,0.06,2.35,332.59,-0.615,0.42,0.579,81.72,651.3,4105.1,76.5,69.8,0,0,0
1772701652.0,439.05,18862.6,0.28,-4.1,203.78,0.155,-0.409,0.987,80.99,643.0,3599.0,69.5,79.8,0,0,0
1772701653.0,416.31,29055.9,-2.24,-14.84,285.9,0.363,0.009,1.078,83.89,629.0,3962.2,58.5,69.9,0,0,0
1772701654.0,458.62,24937.2,2.31,-8.35,187.42,-0.125,0.553,0.789,86.59,664.9,3722.2,66.1,87.6,0,0,0
1772701655.0,439.55,26585.2,-0.04,-1.99,93.78,0.066,-0.312,0.591,89.09,675.3,3249.7,60.9,79.0,0,0,0
1772701656.0,431.77,25827.0,3.01,-13.1,123.13,-0.187,0.046,0.447,76.09,593.9,3285.3,52.2,84.2,0,0,0
1772701657.0,456.33,24134.7,-1.25,-8.52,1.51,-0.379,0.128,2.0,79.3,595.6,3786.8,68.5,81.4,0,0,0
1772701658.0,422.8,22643.1,2.15,21.65,90.86,0.017,0.395,1.579,80.74,709.8,4042.7,71.3,86.4,0,0,0
1772701659.0,464.82,22621.8,1.5,-0.01,75.25,-0.219,-0.053,1.109,81.17,653.3,3736.9,63.9,83.6,0,0,0
1772701660.0,480.15,29661.7,2.25,1.6,246.76,0.206,0.279,0.953,77.04,675.2,3670.0,65.2,85.7,0,0,0
1772701661.0,443.19,20924.1,3.14,-8.41,67.82,0.033,0.408,0.549,76.16,634.0,4009.1,57.5,87.9,0,0,0
1772701662.0,464.81,23716.7,1.09,0.28,225.49,0.061,-0.128,1.444,74.65,665.1,3999.7,60.7,74.8,0,0,0
1772701663.0,430.18,28959.6,5.19,-8.21,19.45,0.176,-0.002,1.102,79.71,633.6,4049.5,68.7,87.1,0,0,0
1772701664.0,529.85,28088.4,4.22,7.63,321.61,0.226,-0.137,1.419,81.14,633.3,4251.8,62.7,94.0,0,0,0
1772701665.0,422.08,24563.9,0.82,-4.92,212.18,-0.029,-0.473,0.271,81.97,671.3,3713.6,60.3,86.9,0,0,0
1772701666.0,474.9,27550.7,3.12,5.59,21.82,0.471,-0.386,1.19,75.85,660.3,3470.8,67.1,81.1,0,0,0
1772701667.0,452.2,28871.2,6.07,-7.56,154.1,0.1,0.213,1.475,79.26,620.4,3358.0,68.9,81.5,0,0,0
1772701668.0,506.76,23880.2,1.13,7.31,182.49,-0.078,-0.068,1.239,75.87,663.5,3984.1,59.8,91.6,0,0,0
1772701669.0,446.15,25061.9,2.49,-1.26,264.67,-0.188,0.382,0.721,76.0,636.9,4232.9,73.7,81.1,0,0,0
1772701670.0,464.43,21371.8,-3.81,18.24,225.8,0.086,0.035,1.57,78.05,659.6,3612.0,60.8,87.6,0,0,0
1772701671.0,482.05,30122.9,1.23,-3.62,29.3,0.08,-0.284,1.415,78.62,680.8,4023.0,63.0,94.2,0,0,0
1772701672.0,391.08,22474.5,3.77,-9.86,70.79,-0.162,-0.02,1.08,83.75,641.6,3373.9,61.2,86.2,0,0,0
1772701673.0,420.67,24176.9,-0.9,15.44,5.73,-0.296,0.305,1.449,80.65,685.2,3708.7,60.6,87.4,0,0,0
1772701674.0,501.9,28958.4,-0.15,-27.72,46.17,0.127,0.154,0.59,78.81,658.0,4223.1,66.1,95.0,0,0,0
1772701675.0,467.7,25689.8,-2.51,-5.72,288.98,-0.234,0.285,0.895,75.54,631.3,3982.0,73.8,82.9,0,0,0
1772701676.0,412.06,24677.3,-1.28,8.05,144.75,-0.504,0.027,0.686,78.39,653.4,3916.4,69.7,77.6,0,0,0
1772701677.0,449.22,24329.2,-0.79,8.45,153.54,-0.282,0.336,0.722,84.06,650.3,3549.5,59.0,93.7,0,0,0
1772701678.0,456.2,24209.8,3.02,-20.76,43.84,-0.151,-0.226,0.524,76.87,652.6,3452.8,62.7,82.7,0,0,0
1772701679.0,406.05,23563.0,3.97,2.24,168.94,-0.408,-0.366,0.41,79.69,640.8,3813.7,64.5,87.6,0,0,0
1772701680.0,442.71,19883.4,1.9,1.49,92.77,0.277,0.088,0.807,81.09,647.7,4223.0,69.8,79.0,0,0,0
1772701681.0,451.72,25850.4,0.44,-10.54,252.96,0.066,0.253,1.166,81.38,623.6,3972.6,60.9,70.9,0,0,0
1772701682.0,457.83,27633.7,-3.25,-19.75,308.35,0.294,0.638,0.781,82.35,659.4,4118.4,76.9,83.9,0,0,0
1772701683.0,405.78,28007.7,1.44,-5.87,252.0,-0.255,-0.541,1.169,86.17,637.7,3616.8,68.0,100.0,0,0,0
1772701684.0,481.04,26655.8,0.3,5.52,48.39,0.157,-0.434,1.241,77.94,681.5,3443.6,68.7,81.4,0,0,0
1772701685.0,453.97,22092.8,4.29,-15.25,83.41,0.014,-0.046,1.218,81.89,625.3,3119.8,67.9,95.9,0,0,0
1772701686.0,471.68,26329.8,2.45,-9.94,138.87,0.598,-0.199,0.28,81.71,644.7,3980.5,65.7,74.1,0,0,0
1772701687.0,449.45,22152.9,0.95,-17.62,25.77,0.414,-0.014,0.579,85.67,627.1,3472.4,62.6,84.8,0,0,0
1772701688.0,438.13,20826.1,2.96,6.03,336.31,0.212,0.279,1.189,79.19,632.5,3551.4,63.8,92.7,0,0,0
1772701689.0,472.5,28976.0,3.26,-11.83,85.07,-0.126,0.134,1.158,76.91,658.7,3463.4,68.0,96.0,0,0,0
1772701690.0,443.14,25682.0,3.49,3.12,264.17,-0.482,-0.166,0.2,83.5,633.5,4034.6,68.7,90.5,0,0,0
1772701691.0,484.98,25991.9,0.89,-9.58,96.46,0.154,-0.088,0.781,81.94,660.8,4048.9,60.8,86.4,0,0,0
1772701692.0,448.43,24830.7,-0.99,-6.07,3.4,-0.165,0.166,0.542,80.51,684.4,3547.4,59.2,86.1,0,0,0
1772701693.0,448.53,27610.8,1.18,4.12,244.81,0.01,0.262,1.517,82.65,646.5,3792.8,55.0,86.1,0,0,0
1772701694.0,443.29,23315.9,3.49,3.3,105.92,0.488,-0.423,1.499,82.17,663.7,3380.3,68.0,92.7,0,0,0
1772701695.0,458.82,26299.1,1.64,7.03,314.52,0.036,0.332,1.426,76.93,578.0,3915.9,68.7,89.0,0,0,0
1772701696.0,456.82,25498.3,-1.05,-11.03,274.7,0.272,0.092,0.968,84.18,667.3,4524.4,68.4,81.7,0,0,0
1772701697.0,428.67,28946.1,-1.8,-0.21,183.46,-0.241,-0.373,1.291,79.87,646.2,3980.3,67.6,80.3,0,0,0
1772701698.0,445.99,25939.0,-0.04,-12.9,232.04,-0.062,-0.671,0.467,79.3,653.8,3880.8,56.9,80.2,0,0,0
1772701699.0,420.43,26852.0,0.13,-9.76,23.86,-0.317,0.346,1.14,80.16,687.7,3678.2,64.1,72.0,0,0,0
