timestamp,airspeed_kts,altitude_barometric_ft,pitch_deg,roll_deg,yaw_deg,accel_longitudinal_g,accel_lateral_g,accel_vertical_g,rpm_n1_pct,exhaust_gas_temp_c,fuel_flow_kgph,oil_pressure_psi,oil_temp_c,engine_warning,overheat_warning,flight_control_warning
1772701200.0,449.38,31202.9,1.47,-8.67,42.48,-0.341,0.258,0.495,78.83,658.1,3806.0,64.2,80.4,0,0,0
1772701201.0,501.53,21238.9,1.12,-21.18,169.0,0.048,-0.082,1.486,76.68,657.0,3628.3,70.8,79.9,0,0,0
1772701202.0,463.66,23844.9,-0.12,12.91,140.03,0.225,-0.249,1.309,84.58,662.3,3367.1,60.8,83.3,0,0,0
1772701203.0,487.59,21697.0,1.99,2.01,314.92,0.002,-0.033,1.286,76.43,665.8,3875.6,66.5,92.7,0,0,0
1772701204.0,493.2,25634.3,0.87,-19.86,245.4,0.544,-1.0,0.625,78.31,684.7,3806.6,59.7,87.6,0,0,0
1772701205.0,481.0,24622.7,3.78,10.21,277.77,-0.272,-0.479,1.531,81.96,650.8,3676.8,58.3,85.7,0,0,0
1772701206.0,464.49,28291.0,-1.12,-1.84,207.43,0.314,-0.475,1.311,76.52,650.7,3975.0,61.5,88.6,0,0,0
1772701207.0,450.63,26701.7,2.61,12.94,336.09,-0.631,0.52,1.706,78.83,658.7,3502.1,72.1,86.1,0,0,0
1772701208.0,451.85,25403.6,0.57,2.21,8.28,-0.359,0.03,1.111,78.59,624.1,3930.9,63.2,84.3,0,0,0
1772701209.0,418.2,25449.8,0.72,-13.73,268.23,-0.025,0.137,0.971,82.01,607.1,3731.1,61.7,83.7,0,0,0
1772701210.0,464.69,25223.6,2.26,9.51,205.22,0.13,0.215,0.624,79.03,720.0,3302.2,58.6,80.5,0,0,0
1772701211.0,382.77,24195.6,1.01,-17.27,14.52,-0.006,-0.312,0.824,81.87,639.9,3659.8,57.6,97.8,0,0,0
1772701212.0,458.28,24880.3,5.52,-3.92,330.42,0.247,-0.297,1.04,78.56,633.7,3109.4,70.6,80.3,0,0,0
1772701213.0,477.94,23595.2,0.77,0.29,358.34,0.051,0.113,0.741,78.23,661.8,4263.1,61.3,88.2,0,0,0
1772701214.0,449.91,25948.3,0.44,-5.25,305.11,-0.244,-0.381,1.261,78.57,688.8,3764.8,64.8,92.3,0,0,0
1772701215.0,465.24,22669.4,3.49,12.62,15.98,-0.451,0.327,0.336,81.86,645.3,3902.8,72.0,103.7,0,0,0
1772701216.0,469.38,24911.9,1.53,-4.32,52.86,0.333,-0.173,0.666,77.27,709.2,3764.7,59.9,79.2,0,0,0
1772701217.0,481.84,23941.2,1.99,-0.23,136.74,0.22,0.357,0.618,76.39,634.0,3623.6,60.0,70.7,0,0,0
1772701218.0,413.6,22708.4,-0.85,1.94,267.07,0.404,0.052,0.592,81.56,663.3,3773.6,67.9,93.7,0,0,0
1772701219.0,427.79,25085.2,-1.83,-13.18,47.23,0.505,-0.238,0.955,81.31,635.5,3752.9,66.2,83.0,0,0,0
1772701220.0,454.81,24543.0,2.46,-17.73,306.3,0.004,0.265,0.482,77.53,682.9,3613.1,65.0,82.6,0,0,0
1772701221.0,449.68,23433.7,2.35,16.92,328.34,-0.338,-0.361,0.67,78.4,661.2,3404.6,61.6,79.0,0,0,0
1772701222.0,413.07,26121.8,3.3,11.31,277.26,-0.115,0.066,1.36,78.51,667.8,4114.1,63.8,70.7,0,0,0
1772701223.0,447.8,30326.0,0.86,-20.17,154.93,-0.0,0.262,2.0,80.5,720.0,3719.4,60.1,89.6,0,0,0
1772701224.0,414.41,25603.5,2.76,8.86,150.03,-0.205,-0.051,1.016,79.81,679.4,3579.4,70.5,81.7,0,0,0
1772701225.0,454.98,26656.0,0.56,-18.55,145.0,-0.308,0.329,1.02,79.56,628.3,3761.7,66.6,93.0,0,0,0
1772701226.0,488.84,25061.5,8.23,2.93,142.23,-0.089,-0.555,1.362,75.57,642.5,4074.4,64.8,82.2,0,0,0
1772701227.0,453.63,25738.9,0.52,4.92,60.51,0.065,-0.085,1.326,82.3,619.5,3529.5,60.0,61.0,0,0,0
1772701228.0,389.55,20383.6,1.49,3.58,151.7,-0.249,0.226,1.184,80.9,647.4,3926.8,63.9,69.6,0,0,0
1772701229.0,458.03,21372.0,-1.6,-6.93,311.42,-0.41,0.176,0.2,79.24,683.1,3669.6,69.3,86.3,0,0,0
1772701230.0,435.98,30085.1,-1.37,1.97,38.22,-0.035,-0.51,0.963,78.4,672.5,3905.7,68.9,70.5,0,0,0
1772701231.0,414.31,27460.5,1.93,-3.09,192.05,-0.298,-0.221,1.591,82.98,645.3,3569.1,61.9,79.3,0,0,0
1772701232.0,487.68,26145.7,-1.53,-0.21,225.34,-0.029,-0.2,0.87,76.06,673.9,3630.2,56.2,85.6,0,0,0
1772701233.0,415.02,23242.3,1.56,4.27,93.84,-0.055,-0.453,0.981,81.56,620.1,3147.1,66.0,88.6,0,0,0
1772701234.0,431.01,21786.7,5.32,-0.41,41.08,-0.48,-0.856,1.78,85.42,665.7,3915.0,69.0,86.6,0,0,0
1772701235.0,465.08,32226.5,-2.93,10.57,194.12,0.071,-0.608,0.681,81.31,673.3,3470.9,67.2,79.7,0,0,0
1772701236.0,439.62,20048.7,0.66,-21.04,138.2,0.035,0.604,1.339,81.08,635.7,3326.1,56.9,83.4,0,0,0
1772701237.0,467.03,25814.9,-0.59,8.23,43.53,0.162,-0.807,0.617,78.89,625.2,3985.3,60.9,90.8,0,0,0
1772701238.0,434.2,25919.1,2.29,4.01,356.11,0.463,-0.213,0.649,79.27,589.4,3579.1,60.5,84.2,0,0,0
1772701239.0,491.68,22144.9,1.19,1.53,153.59,-0.103,-0.382,0.818,81.12,661.4,3481.0,67.1,78.5,0,0,0
1772701240.0,407.5,26197.6,0.13,-0.79,6.9,-0.289,0.053,0.487,77.34,707.4,3705.3,73.5,85.9,0,0,0
1772701241.0,376.62,26305.0,2.11,-10.83,82.44,0.569,0.481,0.912,78.78,638.4,4031.4,57.7,63.8,0,0,0
1772701242.0,490.97,22876.1,1.57,8.15,299.27,0.311,-0.423,0.733,79.63,622.1,4151.9,76.2,94.4,0,0,0
1772701243.0,454.34,26070.3,0.57,6.41,37.92,0.698,-0.312,1.475,80.76,615.7,3695.8,68.7,78.1,0,0,0
1772701244.0,508.17,28391.1,-1.91,1.48,234.46,0.105,0.496,1.534,78.09,635.7,3768.5,60.8,85.3,0,0,0
1772701245.0,446.96,19406.7,1.45,-6.47,198.64,-0.178,-0.639,0.874,77.47,626.9,4107.1,61.7,84.6,0,0,0
1772701246.0,468.45,17959.2,-0.47,-8.9,258.52,0.39,0.276,0.651,80.69,653.2,3960.9,59.8,80.3,0,0,0
1772701247.0,477.14,26085.7,1.04,-2.79,293.38,-0.074,0.013,0.915,82.49,716.2,3839.5,65.0,78.5,0,0,0
1772701248.0,446.18,25560.3,0.73,7.13,356.81,-0.028,-0.15,0.989,76.84,666.4,3952.3,69.3,95.4,0,0,0
1772701249.0,421.61,18228.0,4.27,-11.24,332.63,-0.346,0.06,0.589,77.76,658.7,3907.4,58.8,81.3,0,0,0
1772701250.0,455.0,24159.4,1.1,2.2,191.19,0.363,-0.489,1.097,73.48,631.9,4174.9,64.8,87.9,0,0,0
1772701251.0,410.84,27162.4,-1.78,-1.96,291.82,0.285,-0.108,2.0,84.5,643.1,3586.7,64.1,81.0,0,0,0
1772701252.0,361.96,32383.7,4.24,12.82,349.12,0.285,-0.139,1.016,78.53,699.9,3769.0,70.2,90.7,0,0,0
1772701253.0,436.24,22880.4,2.34,0.62,236.09,-0.195,0.406,1.521,74.19,611.3,3555.4,61.3,81.4,0,0,0
1772701254.0,435.49,23041.6,1.77,2.85,59.09,0.044,0.152,0.689,77.21,645.3,3355.5,62.1,75.2,0,0,0
1772701255.0,433.54,22990.7,-0.29,-0.24,158.93,0.305,-0.323,0.981,81.05,639.9,3700.1,73.3,93.4,0,0,0
1772701256.0,423.07,19120.5,2.5,3.7,314.9,0.173,0.111,1.714,77.83,639.9,4016.1,72.5,79.8,0,0,0
1772701257.0,424.04,25114.9,-0.41,8.14,258.82,-0.363,0.057,0.81,81.11,658.0,3655.1,67.8,84.4,0,0,0
1772701258.0,411.56,21924.3,1.27,21.89,296.97,-0.084,0.046,1.37,80.46,621.0,3263.0,58.8,77.3,0,0,0
1772701259.0,462.69,25013.6,1.24,15.2,156.44,-0.187,-0.157,1.14,83.92,621.9,3788.9,67.8,92.8,0,0,0
1772701260.0,455.79,27944.7,-0.36,8.47,138.32,0.34,0.209,1.114,76.73,682.4,4178.5,69.8,86.2,0,0,0
1772701261.0,384.85,20581.8,-1.52,5.7,139.14,0.23,0.19,1.006,76.11,649.9,3462.3,60.2,86.5,0,0,0
1772701262.0,431.4,20707.6,-2.63,-5.19,207.0,-0.359,-0.561,0.412,81.41,696.3,3576.6,70.7,90.7,0,0,0
1772701263.0,447.08,25725.2,3.48,-1.77,116.21,-0.064,-0.347,0.983,81.21,646.5,3587.9,69.3,66.7,0,0,0
1772701264.0,382.9,27930.4,1.34,7.87,358.16,-0.167,-0.64,0.796,78.53,598.9,3715.0,66.2,82.2,0,0,0
1772701265.0,436.44,24578.3,6.09,6.13,215.48,-0.038,-0.146,1.795,78.09,588.7,3183.5,67.1,93.1,0,0,0
1772701266.0,470.06,23638.5,-0.83,3.48,71.93,0.446,-0.156,0.712,82.05,667.9,4081.7,60.5,92.5,0,0,0
1772701267.0,538.27,27825.5,4.23,6.91,305.08,-0.153,0.12,1.246,81.19,672.2,3535.2,64.0,81.1,0,0,0
1772701268.0,453.38,28463.0,1.56,-6.97,233.21,-0.053,0.249,0.949,78.83,684.8,3408.3,67.3,81.7,0,0,0
1772701269.0,438.36,24981.5,1.17,-16.34,40.15,-0.399,-0.344,0.966,78.23,658.7,3304.9,65.8,65.2,0,0,0
1772701270.0,441.55,25125.8,2.19,-9.64,70.23,0.069,0.015,1.47,82.62,713.5,3708.5,72.2,84.8,0,0,0
1772701271.0,454.05,22528.4,1.91,10.2,328.4,-0.635,0.102,1.009,81.45,625.9,3720.9,60.7,70.7,0,0,0
1772701272.0,382.57,24145.9,3.39,3.0,37.92,-0.279,-0.061,0.573,80.25,641.3,3749.2,63.7,78.1,0,0,0
1772701273.0,464.3,25465.9,1.62,0.36,109.88,0.007,0.078,0.857,84.63,584.7,4034.6,65.0,83.0,0,0,0
1772701274.0,470.01,27545.1,6.55,15.56,4.54,0.33,-0.341,1.441,80.14,651.9,3916.1,62.5,85.6,0,0,0
1772701275.0,428.44,21481.6,1.5,1.3,267.22,-0.138,-0.134,0.997,82.34,616.7,3619.3,66.1,94.6,0,0,0
1772701276.0,433.61,23565.1,1.78,4.94,342.55,-0.05,0.21,1.325,83.06,695.4,3484.7,73.3,74.5,0,0,0
1772701277.0,464.95,26711.3,1.42,-7.82,325.89,0.17,-0.11,1.131,83.42,659.1,3801.7,68.6,89.1,0,0,0
1772701278.0,457.04,24778.0,0.57,-5.39,20.88,-0.053,-0.143,1.433,81.48,596.3,3218.7,63.8,97.8,0,0,0
1772701279.0,435.72,30301.5,-1.14,-5.8,74.06,0.304,-0.331,1.047,82.48,669.4,3942.8,58.2,85.6,0,0,0
1772701280.0,452.6,32024.5,1.21,-10.49,59.07,0.112,0.083,0.47,82.01,645.1,4124.4,73.3,79.8,0,0,0
1772701281.0,468.06,18038.5,2.85,6.18,347.42,-0.382,0.087,1.445,87.03,670.5,3687.1,67.0,81.9,0,0,0
1772701282.0,483.65,27333.6,-0.4,-5.11,111.31,0.22,0.209,0.919,79.59,579.7,3288.3,66.7,85.4,0,0,0
1772701283.0,418.31,30338.0,1.46,2.24,276.53,-0.208,0.04,0.559,83.78,628.5,3574.0,63.9,81.9,0,0,0
1772701284.0,485.75,22488.4,0.86,6.54,68.41,0.108,0.127,1.034,82.69,654.2,4025.1,70.0,97.9,0,0,0
1772701285.0,461.63,32752.5,3.03,7.73,105.55,-0.354,0.073,0.84,83.25,642.0,3692.7,65.2,90.0,0,0,0
1772701286.0,482.89,21767.3,1.72,4.76,212.03,0.102,-0.218,0.2,79.68,629.1,4053.7,67.5,89.9,0,0,0
1772701287.0,509.93,24433.4,3.63,4.51,233.01,0.187,0.034,0.785,84.22,644.3,3513.8,69.8,86.7,0,0,0
1772701288.0,459.04,23379.0,6.13,-28.76,291.41,-0.112,-0.174,1.371,80.66,619.8,4564.8,68.3,78.5,0,0,0
1772701289.0,436.3,28204.8,1.15,5.7,129.78,-0.293,0.376,1.405,81.94,686.6,3938.2,60.4,88.7,0,0,0
1772701290.0,432.73,24173.3,1.59,24.72,81.38,-0.59,-0.284,0.888,78.78,678.7,3593.5,76.1,77.8,0,0,0
1772701291.0,466.68,24089.8,-0.44,-15.31,303.13,0.461,0.614,0.996,82.97,599.3,3729.0,62.6,79.5,0,0,0
1772701292.0,508.56,22043.5,2.74,-2.65,226.35,-0.302,-0.011,1.809,87.48,700.3,3992.5,64.8,75.2,0,0,0
1772701293.0,464.84,22250.6,0.8,-5.48,117.43,-0.059,0.262,1.368,79.59,630.7,3752.0,58.5,81.4,0,0,0
1772701294.0,453.44,27679.6,1.25,-12.05,65.54,-0.163,0.23,1.751,78.63,655.5,4110.9,58.4,91.4,0,0,0
1772701295.0,414.93,20251.3,3.17,18.74,289.33,-0.125,-0.496,1.21,79.14,619.6,3808.0,66.9,84.1,0,0,0
1772701296.0,458.57,19797.4,-1.7,14.81,77.23,-0.328,-0.152,1.027,80.18,642.1,4043.5,58.3,81.1,0,0,0
1772701297.0,396.2,29469.1,2.14,-9.84,192.87,-0.031,0.157,0.774,77.13,606.8,4098.9,62.7,94.3,0,0,0
1772701298.0,434.67,25517.5,0.45,-0.36,128.61,-0.324,-0.136,1.364,75.45,665.0,3841.7,69.6,98.4,0,0,0
1772701299.0,419.85,27663.8,-0.46,-4.23,299.39,0.156,0.337,1.202,82.46,651.2,4448.6,63.5,94.9,0,0,0
1772701300.0,434.86,26092.6,2.92,-3.1,181.77,-0.206,-0.208,1.323,82.48,591.2,3624.3,67.5,92.8,0,0,0
1772701301.0,423.8,21748.4,-1.53,6.33,173.21,0.553,0.06,0.944,77.19,646.1,3703.4,67.6,79.8,0,0,0
1772701302.0,478.98,23097.1,1.28,9.1,247.97,-0.026,0.029,0.301,75.04,620.9,3844.3,64.0,82.6,0,0,0
1772701303.0,434.47,21238.1,0.77,-12.05,343.0,0.204,-0.062,0.727,74.58,652.9,4079.9,61.8,98.7,0,0,0
1772701304.0,440.07,23068.7,-0.22,-4.6,201.63,0.005,-0.352,0.901,78.71,720.0,3711.8,60.0,76.5,0,0,0
1772701305.0,399.19,26693.8,-0.92,-10.16,192.6,0.035,-0.209,0.745,81.27,651.3,3853.3,69.0,89.2,0,0,0
1772701306.0,414.54,28017.9,0.64,1.39,173.54,-0.15,-0.005,1.68,80.28,638.8,3305.4,66.5,97.4,0,0,0
1772701307.0,455.88,25029.4,0.37,-3.52,299.26,0.071,-0.252,1.007,75.84,660.6,3831.5,70.8,84.3,0,0,0
1772701308.0,460.3,28996.0,-1.45,-20.58,166.17,0.016,-0.27,0.946,83.03,610.7,4231.2,65.4,92.9,0,0,0
1772701309.0,433.42,30276.3,1.77,5.71,243.83,0.521,-0.378,0.74,78.63,647.8,3912.6,61.5,82.7,0,0,0
1772701310.0,429.81,30680.3,1.22,-0.22,297.58,0.061,-0.13,1.342,85.36,658.2,4068.8,61.4,83.7,0,0,0
1772701311.0,454.63,28285.8,1.72,12.22,308.91,0.254,-0.62,0.734,82.05,644.9,3350.8,60.5,90.1,0,0,0
1772701312.0,435.14,28776.6,2.18,4.76,314.7,0.395,0.297,1.225,78.91,638.5,3656.2,69.5,95.5,0,0,0
1772701313.0,392.8,24445.8,-0.46,15.76,68.35,-0.083,0.491,0.837,81.8,632.3,3715.1,59.7,80.1,0,0,0
1772701314.0,454.06,23223.8,-1.24,2.79,163.14,0.078,-0.074,1.303,80.76,661.4,4254.5,72.9,88.5,0,0,0
1772701315.0,399.83,23235.6,-0.22,3.6,122.7,-0.109,-0.157,1.987,77.78,628.1,3483.7,66.8,83.6,0,0,0
1772701316.0,431.42,22058.4,2.59,-8.1,287.8,-0.099,0.444,0.773,80.55,657.5,3293.4,69.7,96.1,0,0,0
1772701317.0,414.1,22430.2,2.49,-8.9,282.32,-0.371,-0.18,0.983,77.29,631.3,3250.8,69.1,88.3,0,0,0
1772701318.0,416.17,22398.3,3.72,-4.27,180.15,0.225,0.412,0.2,81.86,673.7,3447.7,58.5,75.4,0,0,0
1772701319.0,465.9,18669.9,0.09,-3.74,107.63,0.054,-0.383,0.464,79.23,637.8,3682.2,61.5,89.8,0,0,0
1772701320.0,475.59,32682.8,0.83,12.85,148.87,-0.071,0.574,1.254,81.31,700.7,3840.8,74.7,86.8,0,0,0
1772701321.0,448.77,29829.4,-0.28,-0.1,340.86,0.415,0.044,0.386,76.31,616.3,3834.2,63.6,83.9,0,0,0
1772701322.0,439.39,26353.3,4.59,5.04,352.04,-0.073,-0.115,0.873,73.36,698.6,3387.0,67.3,95.1,0,0,0
1772701323.0,454.32,21347.1,-0.83,-5.63,273.38,0.48,-0.077,1.121,81.47,651.3,4127.8,69.1,93.4,0,0,0
1772701324.0,417.51,24459.7,-1.05,3.61,97.43,-0.418,-0.158,1.374,82.53,655.4,3859.8,61.1,83.0,0,0,0
1772701325.0,435.43,18763.6,1.45,9.12,244.24,0.074,0.074,0.638,78.13,644.8,3743.1,61.4,86.0,0,0,0
1772701326.0,464.32,19109.5,4.08,12.17,305.27,-0.087,0.107,0.641,76.79,593.7,4370.8,65.1,93.0,0,0,0
1772701327.0,399.11,26282.8,2.71,1.03,231.83,-0.071,-0.209,0.21,82.02,655.8,4081.6,70.0,66.1,0,0,0
1772701328.0,437.32,29887.3,2.71,-4.35,275.81,-0.339,-0.26,0.425,81.8,643.4,4008.4,61.5,78.9,0,0,0
1772701329.0,444.8,23139.2,-0.0,4.82,234.21,0.433,0.117,0.432,79.3,654.7,3494.7,65.0,84.2,0,0,0
1772701330.0,434.67,25752.3,0.23,-13.17,36.6,0.07,-0.29,1.612,75.17,598.4,3387.9,60.1,88.6,0,0,0
1772701331.0,437.64,18376.4,-0.54,-2.69,74.46,0.511,0.087,1.576,79.41,605.7,3138.1,66.4,95.9,0,0,0
1772701332.0,445.1,25439.5,-0.01,0.44,293.58,0.143,0.194,0.2,81.35,618.6,3579.8,62.1,77.5,0,0,0
1772701333.0,439.05,23435.3,1.15,10.78,144.89,0.271,-0.174,0.84,76.44,648.7,4153.8,58.7,80.7,0,0,0
1772701334.0,465.29,26541.7,1.35,-8.51,276.29,0.151,-0.029,0.387,77.17,648.2,3583.5,55.0,82.5,0,0,0
1772701335.0,456.51,20978.9,-0.1,-9.45,309.1,0.489,0.315,0.9,75.61,612.9,4004.4,59.2,74.8,0,0,0
1772701336.0,419.8,23988.1,-3.58,-2.99,15.47,-0.292,0.174,0.351,78.93,672.5,3699.5,55.9,89.9,0,0,0
1772701337.0,439.17,21010.2,2.79,-18.34,284.26,0.392,-0.399,1.356,75.57,658.6,3402.2,61.0,95.4,0,0,0
1772701338.0,431.26,29578.5,-1.55,-5.21,23.18,-0.329,0.035,1.235,80.81,687.4,3806.0,63.6,84.1,0,0,0
1772701339.0,464.0,22519.7,1.25,-6.42,187.98,0.218,0.221,0.547,81.38,623.6,3941.9,57.8,82.6,0,0,0
1772701340.0,427.22,30689.7,1.03,-8.07,352.61,-0.15,0.089,0.292,83.29,591.0,3515.0,66.6,82.7,0,0,0
1772701341.0,469.62,30353.3,1.06,-15.78,318.91,0.09,-0.236,1.643,72.78,651.9,4027.8,60.2,73.4,0,0,0
1772701342.0,428.97,24619.8,2.05,-19.19,19.75,-0.073,0.053,1.31,85.56,622.5,3780.2,67.6,90.6,0,0,0
1772701343.0,481.09,23609.0,3.09,2.99,74.18,0.504,-0.095,0.2,81.97,596.2,3824.6,65.1,78.1,0,0,0
1772701344.0,426.54,22831.2,3.9,-11.9,215.87,-0.001,-0.209,0.665,81.31,633.0,3663.0,61.2,95.9,0,0,0
1772701345.0,474.44,25291.1,-2.19,-17.36,124.13,-0.314,-0.059,1.194,80.03,639.8,4015.1,64.5,84.8,0,0,0
1772701346.0,434.01,24343.8,-2.52,7.93,223.01,0.275,-0.042,0.876,73.94,599.7,3849.5,65.0,84.8,0,0,0
1772701347.0,477.42,22072.1,-0.07,-5.95,208.1,0.101,0.136,1.519,81.01,618.4,3594.3,75.9,72.0,0,0,0
1772701348.0,458.17,24055.8,1.72,2.52,166.88,-0.475,-0.073,0.958,78.43,671.4,4295.2,67.9,85.9,0,0,0
1772701349.0,468.6,23549.6,2.34,-4.16,298.58,0.19,-0.515,0.813,80.05,650.2,3758.2,76.3,69.0,0,0,0
1772701350.0,451.77,23229.3,0.69,10.93,70.13,0.085,0.461,1.241,82.33,648.9,4069.3,68.8,87.8,0,0,0
1772701351.0,415.48,27874.6,4.43,-3.51,330.41,-0.081,0.001,1.336,79.93,651.8,3484.3,63.0,88.8,0,0,0
1772701352.0,446.29,27328.6,3.34,9.74,38.15,-0.242,0.165,1.6,81.64,633.0,3494.3,62.4,80.5,0,0,0
1772701353.0,505.8,26730.2,0.3,9.18,100.24,-0.269,-0.331,2.0,83.24,619.8,3992.8,58.8,94.3,0,0,0
1772701354.0,447.29,26412.4,-1.07,-9.36,283.27,-0.612,0.089,1.216,77.56,702.3,4333.4,68.8,80.2,0,0,0
1772701355.0,441.53,25546.1,2.92,-23.27,92.11,-0.096,0.207,0.825,80.36,648.6,3976.3,65.6,82.0,0,0,0
1772701356.0,479.66,24215.9,1.53,-1.89,109.65,-0.261,-0.396,0.879,80.42,620.6,3821.2,76.1,87.0,0,0,0
1772701357.0,456.37,22517.3,2.45,-14.04,72.47,-0.074,0.061,1.069,80.85,688.2,3728.1,66.0,94.1,0,0,0
1772701358.0,436.61,30455.0,3.57,4.2,171.22,0.14,0.021,0.764,85.56,648.2,3435.6,61.6,82.1,0,0,0
1772701359.0,479.76,25337.3,5.38,17.14,188.04,0.139,0.294,0.864,75.93,649.1,3912.9,67.6,86.6,0,0,0
1772701360.0,477.6,22575.9,-0.2,1.22,0.57,-0.462,-0.049,1.016,81.19,666.0,3591.3,61.2,82.3,0,0,0
1772701361.0,446.94,23150.6,-3.9,15.71,10.94,0.073,0.244,0.278,75.0,697.7,4050.0,73.3,87.2,0,0,0
1772701362.0,419.98,22883.2,-1.7,1.42,192.54,-0.146,-0.077,0.738,76.48,620.1,3778.8,64.9,81.1,0,0,0
1772701363.0,463.95,23019.7,-0.14,-20.14,198.0,-0.266,0.244,0.412,80.08,658.3,3802.8,66.7,88.2,0,0,0
1772701364.0,430.4,27773.9,3.62,11.91,2.11,-0.274,0.138,1.335,83.73,636.7,3545.1,61.1,85.8,0,0,0
1772701365.0,513.44,27007.7,0.69,5.36,338.08,-0.015,0.368,0.601,79.71,623.8,3958.3,60.1,90.7,0,0,0
1772701366.0,429.49,24971.4,2.04,-19.89,96.89,-0.453,-0.116,0.872,80.73,644.2,3728.2,56.8,95.3,0,0,0
1772701367.0,449.71,27767.3,-1.63,-7.64,239.95,-0.045,-0.298,0.53,74.15,694.5,3816.6,72.5,82.4,0,0,0
1772701368.0,441.84,28928.9,-2.12,5.15,280.51,0.148,-1.0,1.098,76.48,622.7,4054.4,67.0,79.6,0,0,0
1772701369.0,484.08,23506.0,-2.54,1.45,77.27,-0.303,0.333,0.788,80.38,675.6,3512.4,62.8,66.3,0,0,0
1772701370.0,475.3,27764.9,1.09,-2.81,2.75,0.039,0.462,0.794,84.86,646.1,3642.0,69.9,83.8,0,0,0
1772701371.0,454.25,24516.6,2.78,-10.52,263.23,0.207,0.407,0.868,81.92,700.8,4122.1,59.9,73.6,0,0,0
1772701372.0,493.53,24997.2,-0.15,3.05,268.32,-0.13,-0.096,0.249,79.38,680.0,3932.2,57.0,81.9,0,0,0
1772701373.0,448.42,24819.9,-2.77,-11.61,180.84,-0.059,0.013,1.658,73.93,624.6,3630.0,73.5,96.3,0,0,0
1772701374.0,415.67,21613.4,1.97,15.33,228.81,-0.541,0.064,1.518,84.46,604.5,3774.8,65.6,89.4,0,0,0
1772701375.0,455.04,25464.3,1.82,-1.97,340.53,-0.082,0.012,1.203,78.63,713.5,3478.9,58.6,83.3,0,0,0
1772701376.0,422.41,23796.2,0.83,-3.52,204.94,0.269,-0.433,1.725,82.65,626.2,2853.7,64.5,93.5,0,0,0
1772701377.0,454.59,25429.5,6.47,-5.74,113.63,-0.669,-0.376,0.87,78.8,653.7,3747.6,70.9,86.4,0,0,0
1772701378.0,414.87,27647.6,1.3,-13.51,143.54,-0.332,-0.064,1.046,87.1,663.5,3603.7,73.6,68.2,0,0,0
1772701379.0,439.8,20045.7,-1.13,8.65,171.91,0.363,-0.499,1.145,78.24,615.8,4052.5,61.2,77.6,0,0,0
1772701380.0,474.32,26919.9,-2.66,-6.97,34.61,-0.275,0.27,1.108,84.05,683.8,3563.1,64.1,69.9,0,0,0
1772701381.0,429.12,28800.3,2.76,3.22,307.0,0.342,0.063,0.847,75.19,634.1,3812.4,67.6,76.3,0,0,0
1772701382.0,460.7,30078.7,0.38,5.05,233.21,0.064,-0.314,1.287,80.96,607.7,3765.4,67.6,86.8,0,0,0
1772701383.0,425.62,22307.3,3.18,6.0,140.38,0.295,0.509,0.881,83.3,626.8,4156.3,61.6,73.8,0,0,0
1772701384.0,434.1,22778.3,0.4,10.91,72.18,0.342,-0.108,1.33,83.23,608.6,3763.9,63.1,88.3,0,0,0
1772701385.0,394.25,19808.9,-0.03,-11.6,330.88,0.028,-0.202,0.373,87.51,654.3,3368.9,65.5,85.3,0,0,0
1772701386.0,443.17,27069.8,-0.72,22.31,247.26,0.016,0.034,0.622,82.09,656.1,3575.1,58.0,83.6,0,0,0
1772701387.0,429.13,22403.0,3.12,13.85,284.68,-0.056,-0.369,1.012,77.35,647.4,3965.3,64.6,97.1,0,0,0
1772701388.0,451.67,27918.0,3.3,3.74,57.16,-0.338,0.114,1.267,84.21,596.0,3738.1,59.8,86.7,0,0,0
1772701389.0,475.45,30056.8,1.56,-4.2,226.36,0.338,0.301,1.151,83.31,631.8,3977.2,64.2,90.1,0,0,0
1772701390.0,457.15,28566.5,-1.1,-10.46,88.21,-0.043,0.187,0.821,83.54,638.7,3912.0,70.0,84.5,0,0,0
1772701391.0,491.9,23929.0,4.07,-3.29,230.82,-0.079,0.032,1.133,82.59,665.7,4010.0,60.4,102.5,0,0,0
1772701392.0,466.24,24390.9,0.49,9.58,308.24,-0.053,-0.025,0.725,81.05,600.3,3824.9,63.9,90.4,0,0,0
1772701393.0,444.25,22636.4,0.5,-6.43,276.57,0.175,-0.151,1.627,84.08,686.3,3500.7,55.3,73.5,0,0,0
1772701394.0,477.31,25525.3,0.07,-0.98,86.06,-0.173,-0.119,0.976,74.06,668.7,3374.5,63.7,90.7,0,0,0
1772701395.0,472.14,21132.0,2.19,12.76,61.65,-0.035,-0.021,1.363,80.75,667.5,3536.5,64.2,92.2,0,0,0
1772701396.0,483.88,25521.0,0.19,-10.79,12.12,0.21,-0.171,0.977,80.37,629.7,3862.0,62.9,78.4,0,0,0
1772701397.0,445.38,23951.7,3.48,9.27,250.36,-0.47,0.645,1.192,75.58,649.0,4151.3,64.0,83.7,0,0,0
1772701398.0,390.13,21601.0,1.72,-7.26,101.56,-0.016,-0.242,1.974,78.51,682.9,3999.7,69.2,88.6,0,0,0
1772701399.0,445.37,28968.0,2.49,8.71,217.39,-0.059,0.509,1.266,84.0,635.9,3321.8,80.0,100.4,0,0,0
1772701400.0,418.35,24371.7,4.17,3.6,342.32,0.187,0.384,1.082,80.96,587.8,3876.1,64.3,75.5,0,0,0
1772701401.0,508.87,19944.7,0.65,-6.03,99.3,0.037,-0.009,1.194,76.3,664.9,3952.3,74.8,89.2,0,0,0
1772701402.0,426.98,21412.2,-0.29,-8.8,320.5,-0.89,0.454,1.384,81.03,687.6,3592.5,68.6,86.4,0,0,0
1772701403.0,476.31,26810.5,3.35,7.78,305.78,0.172,0.139,0.969,82.84,645.5,4453.3,61.7,77.9,0,0,0
1772701404.0,430.82,27057.2,-0.34,-4.3,1.95,-0.259,0.323,0.406,80.15,652.6,4028.4,58.8,98.5,0,0,0
1772701405.0,426.2,25009.8,1.24,21.49,347.23,-0.072,0.181,0.809,78.55,664.4,3778.6,68.2,81.7,0,0,0
1772701406.0,454.07,21983.3,2.57,-1.2,315.49,-0.736,0.353,1.027,78.26,664.4,3806.0,66.8,60.0,0,0,0
1772701407.0,475.81,31395.8,3.3,9.54,332.95,-0.191,-0.02,1.381,79.93,665.5,3263.9,64.9,88.5,0,0,0
1772701408.0,466.83,21919.1,-1.54,-25.12,105.66,-0.308,0.241,0.48,78.69,676.7,3806.4,64.5,85.3,0,0,0
1772701409.0,438.14,30096.6,1.28,13.66,146.42,-0.315,-0.249,0.519,80.15,592.3,3699.9,71.6,83.8,0,0,0
1772701410.0,465.79,22804.4,3.14,17.56,106.92,0.225,0.382,1.385,77.21,640.8,4287.0,61.4,75.3,0,0,0
1772701411.0,457.14,27450.7,1.24,8.48,214.04,0.087,-0.445,1.335,84.39,660.6,3650.1,62.0,75.6,0,0,0
1772701412.0,490.14,26443.1,1.8,7.37,160.25,-0.523,0.08,0.365,82.59,667.4,4043.4,65.0,71.3,0,0,0
1772701413.0,434.37,25871.8,5.02,0.88,253.76,-0.083,0.359,0.648,83.34,674.5,3352.2,56.6,80.0,0,0,0
1772701414.0,420.2,29365.1,0.72,8.01,22.73,-0.227,-0.482,1.518,82.91,628.6,3616.9,70.6,89.5,0,0,0
1772701415.0,402.96,24551.0,-0.04,5.81,147.87,-0.257,-0.319,0.497,79.01,648.7,3513.3,64.1,87.3,0,0,0
1772701416.0,448.51,26924.5,0.98,0.45,3.66,0.094,-0.191,1.776,80.63,622.1,3806.4,61.0,92.8,0,0,0
1772701417.0,434.81,20853.8,1.51,-16.52,252.62,0.181,0.111,1.568,81.7,695.8,3914.4,70.6,72.1,0,0,0
1772701418.0,463.88,25851.2,-0.5,1.62,222.74,0.115,0.347,0.851,75.9,646.8,4222.5,58.6,82.8,0,0,0
1772701419.0,431.21,29477.1,2.19,-6.15,127.83,-0.295,-0.614,0.939,80.39,676.3,3460.3,68.2,78.3,0,0,0
1772701420.0,456.53,26847.7,2.56,-0.02,248.67,0.137,0.26,1.336,84.76,644.5,3433.0,66.0,100.5,0,0,0
1772701421.0,439.79,16005.6,2.09,15.37,101.23,0.63,-0.308,1.202,83.45,652.0,3858.9,58.6,94.2,0,0,0
1772701422.0,470.32,23484.9,0.4,9.7,203.36,-0.181,-0.107,0.612,78.09,599.9,3838.8,60.4,78.3,0,0,0
1772701423.0,483.51,29429.9,2.32,-6.32,244.22,-0.481,-0.278,0.6,77.2,654.5,3977.2,66.3,74.7,0,0,0
1772701424.0,408.05,24576.5,-0.39,12.37,139.04,0.201,0.143,1.3,83.5,602.1,4158.5,63.6,82.3,0,0,0
1772701425.0,427.79,25671.0,3.37,4.93,103.18,0.262,0.11,0.328,89.12,618.8,4433.1,58.3,84.5,0,0,0
1772701426.0,387.43,22735.6,0.83,15.46,110.76,-0.722,0.407,0.263,80.74,701.7,3813.4,57.6,79.7,0,0,0
1772701427.0,480.39,25939.7,-0.45,1.63,191.96,0.102,0.156,1.3,80.07,640.5,4051.0,70.8,77.9,0,0,0
1772701428.0,465.73,23117.8,-0.82,-0.67,101.76,-0.351,0.117,1.073,79.26,638.2,3919.5,58.7,86.6,0,0,0
1772701429.0,406.85,22748.7,4.16,6.58,241.87,-0.181,0.384,0.964,79.89,605.7,3649.6,70.4,87.5,0,0,0
1772701430.0,479.37,22900.6,3.17,5.75,296.81,-0.107,0.001,1.21,80.2,683.7,4091.2,54.0,84.2,0,0,0
1772701431.0,415.98,25772.2,-0.78,10.41,36.37,0.041,0.139,1.066,84.31,593.2,3345.8,69.6,96.8,0,0,0
1772701432.0,425.4,29815.7,3.81,6.05,171.53,-0.084,-0.369,0.825,79.08,685.3,4149.0,65.4,102.1,0,0,0
1772701433.0,377.61,27592.3,1.3,8.18,22.18,-0.194,-0.246,1.157,82.29,705.2,3790.8,64.8,84.2,0,0,0
1772701434.0,468.54,23538.2,4.57,-14.4,18.62,0.061,-0.259,1.25,76.62,615.0,3803.7,62.6,87.2,0,0,0
1772701435.0,475.3,23860.9,1.82,-28.48,271.73,-0.051,0.092,1.753,78.15,643.7,3807.2,66.3,83.2,0,0,0
1772701436.0,493.01,22592.4,-0.49,-11.89,94.57,0.033,0.24,1.863,79.5,705.0,4033.6,63.5,79.2,0,0,0
1772701437.0,446.79,31664.9,0.37,12.05,90.54,0.105,-0.403,0.954,79.59,695.3,4081.5,69.2,90.3,0,0,0
1772701438.0,448.4,26389.8,-0.41,-2.12,22.91,0.034,0.411,0.519,80.6,672.4,4216.7,67.0,87.4,0,0,0
1772701439.0,460.97,25565.2,-1.34,-21.46,65.58,-0.212,0.541,0.975,76.97,661.1,4175.9,62.3,75.9,0,0,0
1772701440.0,421.13,29171.0,-0.01,10.08,351.27,0.353,0.287,0.756,75.77,705.8,3986.9,62.4,74.5,0,0,0
1772701441.0,447.84,26648.4,2.62,12.11,255.04,-0.095,-0.109,0.534,85.04,615.8,3893.6,67.0,67.8,0,0,0
1772701442.0,512.76,25903.6,2.28,2.26,250.36,0.018,-0.184,0.543,79.63,677.6,4022.2,65.0,77.1,0,0,0
1772701443.0,402.72,25951.3,3.72,9.99,339.44,-0.543,0.426,0.6,79.43,660.5,3670.6,64.6,88.4,0,0,0
1772701444.0,421.09,24917.4,1.15,-3.16,56.42,-0.124,0.295,0.706,85.13,700.7,3771.5,66.7,90.1,0,0,0
1772701445.0,447.84,21761.0,0.6,6.29,308.9,-0.351,-0.285,1.407,77.13,656.7,4067.4,66.7,82.2,0,0,0
1772701446.0,476.86,26400.9,-1.87,10.44,275.72,0.027,0.228,1.23,82.83,640.7,4047.2,67.7,96.5,0,0,0
1772701447.0,455.41,20618.1,0.14,-1.24,321.96,0.238,-0.378,1.396,79.44,603.5,3922.3,67.7,82.0,0,0,0
1772701448.0,501.32,27385.1,0.31,11.84,203.47,0.028,0.251,0.355,76.87,658.0,4014.5,60.0,109.7,0,0,0
1772701449.0,455.07,26306.1,-0.74,-10.35,310.5,-0.33,0.191,0.888,79.33,655.4,4100.3,67.9,80.8,0,0,0
1772701450.0,414.42,23049.9,2.5,-2.02,336.45,-0.165,-0.178,1.584,83.77,690.7,4103.1,66.2,85.6,0,0,0
1772701451.0,422.26,19465.5,-2.04,-2.42,35.37,-0.37,0.306,1.328,77.38,642.8,3456.4,63.3,85.5,0,0,0
1772701452.0,423.33,28288.5,-2.3,4.75,167.56,-0.251,-0.168,0.807,84.7,680.7,3298.0,57.5,74.2,0,0,0
1772701453.0,390.74,23431.9,2.59,-13.51,209.5,-0.556,-0.239,0.234,75.21,593.9,3532.4,68.7,77.6,0,0,0
1772701454.0,460.21,28198.1,3.19,-2.63,341.67,-0.051,-0.13,0.834,77.41,678.2,3951.9,62.8,89.0,0,0,0
1772701455.0,460.46,25998.6,4.0,-4.32,277.38,0.155,-0.299,1.357,81.44,615.7,3843.4,55.9,90.5,0,0,0
1772701456.0,445.39,25515.1,2.46,-16.27,355.35,-0.479,0.057,0.646,81.67,671.4,4108.4,58.9,92.8,0,0,0
1772701457.0,398.83,24343.7,-1.29,18.64,285.59,0.332,-0.291,0.462,79.47,667.1,3860.1,69.8,79.9,0,0,0
1772701458.0,455.73,25854.8,3.14,1.11,45.59,0.17,0.169,1.139,83.3,655.3,3717.4,72.5,91.6,0,0,0
1772701459.0,474.6,26848.3,3.25,12.64,154.0,-0.111,-0.036,0.99,75.47,634.4,4120.8,60.8,85.5,0,0,0
1772701460.0,444.62,25343.9,1.32,7.89,205.3,0.234,-0.117,1.424,83.67,604.3,3303.2,64.7,77.5,0,0,0
1772701461.0,412.58,27622.5,2.67,-4.81,228.2,-0.193,0.095,0.826,73.4,649.9,4535.0,57.9,82.9,0,0,0
1772701462.0,454.27,19217.3,0.92,0.16,182.98,-0.145,-0.117,1.206,77.44,576.4,4116.7,61.6,98.1,0,0,0
1772701463.0,472.09,28871.1,-3.95,0.95,338.12,0.61,-0.094,1.507,83.78,595.9,3904.6,63.7,80.7,0,0,0
1772701464.0,449.57,21081.9,-0.68,15.02,160.81,0.557,0.034,0.821,80.99,628.4,3411.3,68.7,71.3,0,0,0
1772701465.0,450.51,21256.3,4.1,5.22,133.39,0.139,0.487,1.726,81.11,660.9,4044.5,62.1,95.0,0,0,0
1772701466.0,432.11,24164.6,3.45,-5.18,101.99,-0.005,-0.533,1.205,80.02,684.3,3616.1,66.3,105.6,0,0,0
1772701467.0,436.11,22757.0,-0.56,-12.97,200.02,0.061,-0.167,0.556,78.75,646.1,3703.7,64.2,84.9,0,0,0
1772701468.0,448.06,22172.0,5.15,2.2,164.42,-0.032,0.124,1.086,81.02,650.3,3415.7,61.5,79.9,0,0,0
1772701469.0,442.2,25365.7,-1.76,-16.12,225.19,-0.239,-0.196,0.715,79.16,636.4,3888.9,59.1,80.7,0,0,0
1772701470.0,427.25,22539.2,2.23,0.45,303.85,0.44,-0.542,0.971,78.25,699.9,3697.4,70.1,70.4,0,0,0
1772701471.0,436.86,24295.4,-2.45,5.24,37.05,0.021,-0.124,0.902,79.31,616.7,3424.6,58.3,78.8,0,0,0
1772701472.0,436.6,29141.3,2.3,-6.61,268.02,-0.007,-0.092,0.716,83.49,651.4,3760.6,67.5,82.9,0,0,0
1772701473.0,453.33,24489.8,3.14,-20.91,10.88,0.007,-0.452,0.96,78.12,641.8,4159.0,62.1,82.3,0,0,0
1772701474.0,491.42,27492.5,2.2,-15.81,204.73,0.154,-0.644,1.898,78.37,617.0,3756.9,65.9,78.7,0,0,0
1772701475.0,451.18,19402.6,3.89,6.1,126.82,-0.402,0.354,1.657,80.33,678.7,3638.5,73.2,87.6,0,0,0
1772701476.0,422.44,18901.4,-0.89,-2.93,306.02,0.36,-0.135,0.899,79.59,657.5,3355.6,57.7,92.8,0,0,0
1772701477.0,413.22,26403.2,0.59,9.18,176.74,0.303,-0.171,1.52,78.8,641.0,3631.1,72.4,89.4,0,0,0
1772701478.0,444.89,22882.6,-1.6,22.1,333.6,0.018,-0.133,1.418,78.52,703.4,4209.3,73.0,89.5,0,0,0
1772701479.0,459.97,28312.7,4.5,2.29,281.37,-0.343,-0.027,0.856,83.12,640.2,3908.6,60.7,90.1,0,0,0
1772701480.0,411.53,25958.2,3.05,-2.18,94.59,-0.482,0.032,1.153,79.73,635.0,3703.0,60.3,92.1,0,0,0
1772701481.0,448.86,21663.2,1.86,0.28,265.44,0.387,0.24,1.551,76.48,656.7,3975.9,68.4,92.5,0,0,0
1772701482.0,437.39,28145.5,-2.22,14.33,287.44,0.038,0.272,1.675,80.36,644.8,3722.7,63.5,79.2,0,0,0
1772701483.0,477.66,28635.3,-1.28,-2.24,236.7,-0.016,-0.22,0.676,80.72,627.0,3951.0,71.9,82.4,0,0,0
1772701484.0,440.85,17631.6,0.58,5.46,225.96,-0.308,0.003,1.224,81.09,675.8,3260.9,70.5,80.2,0,0,0
1772701485.0,425.35,24180.8,0.7,-2.14,45.93,0.334,0.087,1.584,80.91,655.4,3560.7,60.5,77.0,0,0,0
1772701486.0,417.12,27675.3,-1.2,-6.65,49.99,-0.021,0.259,1.137,80.78,633.9,3697.8,63.0,85.1,0,0,0
1772701487.0,425.61,24589.2,2.05,5.74,178.34,-0.309,-0.252,0.599,80.72,659.8,3861.7,63.3,83.4,0,0,0
1772701488.0,486.45,20311.6,-1.21,6.07,63.92,-0.245,0.16,0.841,77.23,621.2,3958.9,65.7,89.7,0,0,0
1772701489.0,468.52,23445.0,0.86,-25.5,1.43,-0.107,0.008,1.631,81.72,627.2,3902.6,60.9,91.4,0,0,0
1772701490.0,444.28,28006.9,0.98,-9.67,233.39,-0.066,-0.359,0.965,76.29,672.2,3914.9,58.4,74.0,0,0,0
1772701491.0,398.47,32365.2,0.09,4.9,208.97,-0.26,0.007,0.676,83.8,613.8,4162.1,60.3,77.0,0,0,0
1772701492.0,435.3,24700.6,-2.99,1.78,263.77,-0.271,0.665,0.493,76.12,635.8,3678.6,57.1,87.7,0,0,0
1772701493.0,484.81,20583.1,-0.91,4.57,125.07,-0.085,-0.256,0.63,81.26,709.9,4130.1,72.9,80.3,0,0,0
1772701494.0,407.56,29798.5,1.0,5.24,289.28,0.209,0.144,1.271,80.5,629.5,4137.1,65.6,90.9,0,0,0
1772701495.0,420.2,24135.0,1.29,-6.54,256.23,0.548,-0.128,0.578,79.63,596.8,3979.7,68.4,86.7,0,0,0
1772701496.0,404.64,24653.6,0.19,-2.74,324.37,0.318,-0.027,1.36,79.58,681.7,3391.5,58.0,81.1,0,0,0
1772701497.0,465.51,20707.2,-1.76,-6.33,333.15,-0.101,-0.354,1.389,84.84,683.6,3685.7,68.0,83.6,0,0,0
1772701498.0,460.38,26912.1,-1.51,-0.75,127.44,0.367,0.061,0.2,78.5,637.5,3763.4,67.8,85.4,0,0,0
1772701499.0,430.96,20045.1,2.99,-17.64,72.97,-0.101,-0.59,0.767,77.11,614.6,3597.6,58.6,85.6,0,0,0
1772701500.0,485.15,23093.9,0.34,-7.79,353.51,0.486,-1.0,0.871,79.35,676.7,3948.6,55.9,82.5,0,0,0
1772701501.0,445.47,25144.2,0.83,-5.93,218.68,0.342,0.233,1.388,79.05,637.8,3758.3,68.2,87.4,0,0,0
1772701502.0,455.95,25761.5,-0.36,5.35,295.41,-0.102,0.237,1.05,77.8,656.0,3978.7,59.8,78.5,0,0,0
1772701503.0,443.81,31124.2,6.18,2.16,71.26,0.444,0.183,1.493,83.78,574.3,3551.9,59.6,77.1,0,0,0
1772701504.0,469.31,24233.2,0.53,16.73,267.65,0.287,0.229,0.832,81.27,600.2,4105.3,62.8,97.1,0,0,0
1772701505.0,456.48,26286.0,-0.85,-4.84,165.96,-0.218,0.238,1.043,77.23,654.3,3664.8,69.5,75.3,0,0,0
1772701506.0,407.21,25331.9,3.88,-4.18,184.38,-0.194,-0.343,0.906,82.3,551.7,4373.8,69.1,81.8,0,0,0
1772701507.0,453.43,22181.8,2.32,8.55,289.84,-0.297,-0.406,1.002,80.68,618.9,3641.7,71.4,92.5,0,0,0
1772701508.0,442.49,34329.1,2.35,4.87,107.27,-0.122,-0.127,0.667,79.76,611.4,3951.8,66.7,82.6,0,0,0
1772701509.0,471.24,23951.1,-0.07,8.63,69.34,0.473,0.074,1.598,77.97,595.1,4635.7,68.6,80.4,0,0,0
1772701510.0,509.15,22267.3,-0.19,1.51,134.44,-0.349,-0.038,1.719,80.08,573.3,3512.7,66.4,78.0,0,0,0
1772701511.0,448.27,23775.2,-1.78,-16.03,73.55,-0.114,-0.294,0.369,80.07,580.3,3542.1,74.8,82.0,0,0,0
1772701512.0,465.17,24984.2,0.98,18.34,20.49,-0.284,-0.25,0.912,77.74,614.4,4222.0,62.5,85.6,0,0,0
1772701513.0,433.97,22366.1,1.52,4.18,156.11,1.0,0.109,0.824,78.33,657.7,3613.1,74.9,96.3,0,0,0
1772701514.0,459.52,32952.6,2.59,9.67,337.08,0.12,0.365,1.466,80.1,658.7,3700.1,60.8,104.1,0,0,0
1772701515.0,473.65,24824.8,0.11,4.11,249.74,-0.22,0.21,0.719,80.23,611.8,3924.7,67.8,76.3,0,0,0
1772701516.0,463.86,25754.0,0.82,2.8,178.62,0.013,-0.358,0.391,82.89,658.5,3583.3,67.3,79.6,0,0,0
1772701517.0,434.7,25791.0,1.22,3.27,90.54,0.208,0.021,0.333,80.11,619.6,3783.7,71.4,86.7,0,0,0
1772701518.0,472.39,28509.1,3.59,-17.28,55.08,0.194,0.147,0.6,80.7,660.0,3655.0,61.9,94.1,0,0,0
1772701519.0,459.32,29383.3,1.46,1.87,128.57,-0.06,0.609,0.682,85.03,598.2,3936.9,58.3,74.9,0,0,0
1772701520.0,480.68,26155.1,-2.05,11.67,124.49,-0.817,0.332,0.761,80.99,666.1,4010.1,59.8,95.5,0,0,0
1772701521.0,412.77,26051.9,-3.9,-3.3,112.12,0.041,0.122,1.387,81.65,623.8,3902.8,61.7,87.1,0,0,0
1772701522.0,421.14,22744.6,1.78,0.36,359.79,-0.34,0.441,0.568,79.13,656.7,3539.4,67.4,88.1,0,0,0
1772701523.0,452.02,27328.2,0.9,-15.21,347.71,0.408,-0.067,0.633,81.78,650.9,3492.3,61.9,93.4,0,0,0
1772701524.0,486.3,21637.2,2.26,15.1,239.25,0.106,-0.116,0.848,80.94,661.3,3977.6,67.9,87.4,0,0,0
1772701525.0,434.05,31222.4,-0.89,-8.96,145.28,-0.094,-0.1,0.735,80.78,645.1,4385.2,69.4,87.6,0,0,0
1772701526.0,404.7,28902.8,-3.06,3.3,180.67,0.031,0.083,0.2,83.5,613.9,3799.0,70.6,93.1,0,0,0
1772701527.0,373.21,31304.9,0.14,3.91,139.79,0.24,-0.125,0.865,79.84,604.6,3759.0,70.3,95.4,0,0,0
1772701528.0,468.48,27613.6,-0.09,-5.64,126.08,0.022,0.393,1.034,81.53,623.9,4020.5,66.1,84.9,0,0,0
1772701529.0,437.37,20889.7,0.25,3.2,121.91,-0.216,0.137,0.991,82.93,665.5,3732.9,64.0,85.6,0,0,0
1772701530.0,434.81,27675.9,-2.26,10.21,300.68,-0.185,-0.164,0.875,81.47,617.9,3734.6,60.4,69.3,0,0,0
1772701531.0,426.08,24490.8,0.42,-6.84,51.82,-0.21,0.229,1.531,79.58,687.0,4025.9,51.8,81.8,0,0,0
1772701532.0,392.33,26545.4,2.63,0.6,87.57,0.291,-0.276,0.2,88.02,662.8,3879.4,75.9,79.5,0,0,0
1772701533.0,448.91,19127.5,-0.7,-19.48,284.66,-0.2,0.272,1.24,79.67,671.6,3457.4,59.6,63.4,0,0,0
1772701534.0,445.71,23883.5,0.33,15.99,343.77,-0.362,0.032,0.997,81.41,637.2,3614.1,67.4,73.0,0,0,0
1772701535.0,473.44,24401.3,1.79,-10.0,0.16,-0.165,-0.613,0.972,73.3,602.4,3740.6,67.2,89.7,0,0,0
1772701536.0,450.84,25902.9,-0.05,-4.85,352.54,-0.3,-0.153,0.424,78.4,615.0,4156.2,71.4,94.0,0,0,0
1772701537.0,421.01,24828.3,-0.03,6.14,349.79,-0.535,0.013,1.833,78.26,640.1,4284.2,60.1,86.3,0,0,0
1772701538.0,395.93,30033.5,-0.09,8.84,130.6,-0.338,-0.637,1.394,76.31,669.8,3194.0,66.5,93.8,0,0,0
1772701539.0,400.43,28399.8,-0.28,1.2,250.52,0.165,0.231,1.252,82.31,662.9,3591.7,60.6,77.3,0,0,0
1772701540.0,467.99,20385.3,0.68,-12.5,66.19,-0.468,0.011,0.43,80.8,686.9,4175.9,62.5,103.6,0,0,0
1772701541.0,451.66,24825.9,1.66,-5.05,135.59,-0.156,-0.167,0.468,79.05,654.5,3814.6,64.4,87.6,0,0,0
1772701542.0,449.89,19998.9,3.09,2.79,70.95,0.045,0.028,1.053,76.79,634.8,3818.9,65.7,88.0,0,0,0
1772701543.0,410.39,23562.0,1.55,3.72,209.23,-0.338,-0.094,0.219,81.69,650.7,3584.5,71.0,83.9,0,0,0
1772701544.0,451.07,21449.0,1.83,6.55,172.82,-0.546,0.208,0.2,70.56,683.4,4174.4,72.0,81.0,0,0,0
1772701545.0,412.41,23469.8,2.1,3.69,200.22,0.062,0.221,0.996,83.68,633.5,3800.8,64.5,77.6,0,0,0
1772701546.0,480.41,29152.8,-2.71,7.56,274.29,0.157,-0.545,1.22,79.44,690.0,3993.2,65.4,91.4,0,0,0
1772701547.0,475.06,32517.3,1.71,10.22,151.86,-0.161,0.217,0.47,80.15,641.8,3862.8,61.6,82.8,0,0,0
1772701548.0,407.68,24843.5,3.74,-12.62,224.05,0.304,-0.053,1.103,83.76,609.1,4352.4,61.1,83.1,0,0,0
1772701549.0,455.77,22369.4,-0.13,0.58,102.33,0.023,-0.284,1.356,82.8,701.4,4239.7,70.1,91.0,0,0,0
1772701550.0,442.73,23980.9,0.48,-3.2,76.42,-0.386,0.181,0.847,80.24,674.7,3335.7,60.5,72.7,0,0,0
1772701551.0,449.22,27763.5,3.65,-6.65,38.86,-0.357,0.506,1.363,82.98,629.0,3826.1,57.9,95.1,0,0,0
1772701552.0,397.2,25215.0,3.08,-2.89,306.73,-0.084,-0.171,1.635,81.49,720.0,3880.1,67.0,80.0,0,0,0
1772701553.0,428.36,24586.3,2.84,-4.38,241.26,0.106,0.22,1.245,79.02,665.8,3666.3,64.9,78.8,0,0,0
1772701554.0,461.15,27562.0,0.29,2.45,227.24,0.005,0.199,1.076,84.35,647.9,3611.5,68.3,85.1,0,0,0
1772701555.0,442.74,25609.7,0.82,2.48,142.21,-0.273,0.283,1.333,74.26,658.7,3898.9,64.3,78.0,0,0,0
1772701556.0,400.31,18549.1,4.27,11.19,46.19,-0.407,-0.32,1.054,80.35,595.2,3769.5,68.0,81.5,0,0,0
1772701557.0,421.29,26749.4,5.27,1.91,199.46,0.023,0.19,1.161,83.7,633.5,3741.4,63.3,71.2,0,0,0
1772701558.0,456.11,20651.6,-3.54,-5.06,253.05,0.2,-0.123,1.05,80.33,656.8,3953.9,68.6,85.7,0,0,0
1772701559.0,419.74,22260.3,2.52,1.19,331.02,0.163,-0.068,1.449,79.74,708.6,4001.7,63.4,86.7,0,0,0
1772701560.0,412.0,21090.5,2.43,-0.73,104.57,-0.117,-0.007,1.719,84.54,645.2,3447.1,70.1,75.7,0,0,0
1772701561.0,404.2,25505.5,0.06,-11.41,337.74,0.317,-0.324,0.744,80.37,630.0,3567.6,63.3,80.6,0,0,0
1772701562.0,470.44,18708.6,4.65,-6.46,91.48,0.113,-0.313,1.434,82.44,571.9,4255.9,69.4,82.7,0,0,0
1772701563.0,472.65,28300.7,-0.27,-19.17,83.35,0.362,0.121,0.883,79.97,619.9,4169.8,66.2,97.0,0,0,0
1772701564.0,436.06,25378.5,0.54,-16.57,31.49,0.252,0.183,0.57,83.33,641.1,3646.8,65.0,89.0,0,0,0
1772701565.0,443.37,25312.9,1.22,-11.87,222.49,-0.123,0.225,0.416,77.81,654.9,3734.2,60.8,79.6,0,0,0
1772701566.0,501.56,22355.5,2.9,-13.96,350.05,0.058,0.012,0.998,75.23,635.3,3420.4,68.4,83.2,0,0,0
1772701567.0,375.09,21284.6,-0.88,6.2,136.57,-0.328,-0.649,1.04,85.9,674.8,3741.4,62.0,86.0,0,0,0
1772701568.0,477.38,17413.4,1.36,16.07,81.71,0.091,0.107,0.616,81.31,568.5,3602.0,60.8,81.0,0,0,0
1772701569.0,461.26,21979.7,1.06,2.33,208.83,0.251,-0.242,0.91,84.21,647.4,3941.2,62.1,92.0,0,0,0
1772701570.0,376.25,22210.2,4.27,-13.75,282.02,0.06,-0.196,0.917,79.06,669.4,4279.1,65.7,74.5,0,0,0
1772701571.0,432.4,25614.3,2.27,-23.71,102.62,0.448,0.374,1.135,78.44,601.6,3833.6,72.9,68.4,0,0,0
1772701572.0,402.51,26604.3,1.16,-7.26,342.45,0.154,-0.356,1.675,78.56,665.7,3720.1,66.3,85.9,0,0,0
1772701573.0,463.23,24028.0,-3.68,16.38,174.85,-0.637,0.165,0.988,80.48,676.6,3817.1,73.4,85.1,0,0,0
1772701574.0,417.89,27693.2,1.81,-3.09,359.45,0.038,0.061,1.306,83.19,647.9,3719.6,60.6,93.5,0,0,0
1772701575.0,443.78,30121.6,1.82,10.59,329.9,0.154,0.271,0.906,81.32,604.6,4044.5,66.0,91.8,0,0,0
1772701576.0,470.86,21705.1,2.66,7.2,83.78,0.087,0.039,0.66,82.11,631.1,4114.2,60.9,87.5,0,0,0
1772701577.0,427.21,22407.2,3.2,13.56,208.55,-0.154,-0.408,0.905,84.02,673.9,3433.3,64.5,92.6,0,0,0
1772701578.0,471.33,28257.8,0.93,1.45,174.98,0.167,0.26,0.918,81.09,650.1,4041.2,62.1,85.1,0,0,0
1772701579.0,390.07,28016.7,1.81,4.33,252.65,-0.218,0.501,0.81,77.61,651.7,3771.3,64.3,88.7,0,0,0
1772701580.0,456.48,27367.9,-1.25,13.38,156.18,0.414,0.034,0.719,78.94,655.6,4002.0,66.3,88.4,0,0,0
1772701581.0,482.92,23408.6,1.04,-5.44,260.04,-0.309,-0.205,1.33,79.1,628.7,3693.5,61.3,76.2,0,0,0
1772701582.0,477.63,25479.6,5.04,-6.3,214.48,0.222,-0.027,0.239,79.56,650.5,3971.7,71.9,91.1,0,0,0
1772701583.0,439.84,25283.8,-2.49,1.78,14.38,-0.309,0.12,1.478,80.81,695.7,4159.4,66.5,79.9,0,0,0
1772701584.0,423.44,21619.8,1.85,-6.5,54.64,-0.145,0.01,0.945,84.14,653.0,3812.5,61.5,95.6,0,0,0
1772701585.0,464.16,23205.4,2.95,4.19,31.49,0.369,-0.253,0.252,81.73,649.7,4372.5,62.1,78.9,0,0,0
1772701586.0,392.65,21054.7,1.53,16.07,243.37,-0.43,0.353,1.416,81.66,634.8,3786.8,60.7,97.4,0,0,0
1772701587.0,424.35,25699.4,0.93,-1.8,331.78,-0.486,0.395,0.593,79.26,689.0,3440.8,66.8,79.0,0,0,0
1772701588.0,474.54,29806.4,3.4,-5.59,39.78,0.334,-0.226,0.2,80.93,633.2,3665.8,67.4,60.4,0,0,0
1772701589.0,467.65,23761.2,2.5,8.06,33.38,0.339,-0.017,0.922,80.63,657.4,3799.3,62.8,71.9,0,0,0
1772701590.0,407.92,22731.1,-1.46,-5.52,357.98,0.388,0.076,1.088,74.64,655.6,3709.0,72.1,82.3,0,0,0
1772701591.0,424.47,25174.0,1.65,-4.37,61.89,0.177,-0.498,0.644,80.54,654.1,3909.2,61.9,79.2,0,0,0
1772701592.0,467.79,27144.4,0.14,-8.44,10.68,0.03,0.065,1.009,84.14,653.2,3636.8,63.7,63.3,0,0,0
1772701593.0,411.88,22769.2,0.81,-3.1,269.49,-0.155,-0.203,0.874,76.99,649.2,4032.9,66.2,83.0,0,0,0
1772701594.0,415.02,26565.6,4.82,6.3,333.77,0.381,0.034,1.142,76.61,704.7,4245.0,74.8,80.7,0,0,0
1772701595.0,510.25,29892.5,-2.44,-4.23,175.28,-0.089,0.454,0.315,79.65,633.4,4302.9,72.1,76.8,0,0,0
1772701596.0,463.15,25196.1,5.08,0.78,159.03,-0.365,0.366,0.565,81.18,656.8,3788.2,64.2,84.2,0,0,0
1772701597.0,491.7,26277.5,-0.33,7.68,234.52,-0.057,-0.264,0.618,80.0,602.8,3468.4,70.4,82.4,0,0,0
1772701598.0,482.66,21757.6,2.2,15.14,258.68,-0.101,-0.182,0.516,82.95,703.5,3876.0,63.5,80.8,0,0,0
1772701599.0,432.04,27997.0,0.86,-20.32,202.14,-0.382,0.159,0.763,82.35,656.7,3594.9,62.6,85.5,0,0,0
1772701600.0,424.61,21854.6,-0.37,-8.31,185.16,-0.427,-0.228,0.963,75.66,681.7,4002.0,63.8,76.0,0,0,0
1772701601.0,463.39,24243.5,2.9,1.72,90.27,0.147,-0.121,0.875,80.75,662.7,3403.3,58.9,79.6,0,0,0
1772701602.0,458.28,27780.1,1.12,-20.9,168.25,-0.55,0.138,0.485,78.64,653.0,3692.0,65.7,90.8,0,0,0
1772701603.0,418.01,26300.9,-0.13,11.92,253.69,0.257,0.092,0.669,78.77,599.3,4034.5,66.9,84.8,0,0,0
1772701604.0,448.55,28853.7,-2.13,-6.99,129.0,0.137,-0.225,1.543,82.2,651.7,4040.0,59.9,86.9,0,0,0
1772701605.0,439.8,28829.8,4.69,-1.48,39.16,-0.067,-0.217,0.704,77.93,633.9,4274.9,57.5,87.8,0,0,0
1772701606.0,488.92,22423.4,3.08,4.82,96.08,-0.161,-0.165,2.0,81.26,700.9,3084.1,64.7,87.9,0,0,0
1772701607.0,458.53,20581.4,2.28,-1.82,222.97,0.015,0.39,0.888,82.94,660.1,4366.1,63.7,82.4,0,0,0
1772701608.0,444.93,24118.0,3.07,3.78,152.15,-0.417,0.394,1.509,76.98,674.9,3510.3,65.2,72.3,0,0,0
1772701609.0,430.34,25931.5,0.11,-0.95,168.59,-0.147,0.228,0.701,79.28,717.0,3480.1,65.0,78.6,0,0,0
1772701610.0,413.9,29068.0,-2.08,3.64,207.75,0.037,0.209,1.472,77.41,694.9,3832.5,77.4,72.8,0,0,0
1772701611.0,443.91,23792.7,4.56,6.5,134.07,0.553,-0.185,0.92,80.18,666.8,3770.9,66.2,69.1,0,0,0
1772701612.0,429.84,20778.1,-0.81,3.47,59.11,0.554,-0.179,1.277,76.93,587.2,3795.3,57.0,81.0,0,0,0
1772701613.0,510.49,16939.7,3.25,6.91,260.36,0.12,0.666,0.796,73.35,649.4,3476.5,66.1,88.8,0,0,0
1772701614.0,427.74,26423.3,3.17,-11.95,327.46,-0.518,0.464,1.081,79.92,649.6,3596.8,61.1,73.9,0,0,0
1772701615.0,462.41,24042.1,-0.98,5.14,342.19,-0.183,0.026,0.655,81.09,641.3,3692.1,66.3,93.9,0,0,0
1772701616.0,418.31,22633.7,1.92,6.73,193.05,0.236,-0.208,0.787,73.78,655.2,3593.5,67.3,110.0,0,0,0
1772701617.0,454.79,33704.4,-3.52,2.9,146.19,-0.117,-0.233,0.508,81.25,687.5,3753.3,62.7,98.8,0,0,0
1772701618.0,486.23,26216.5,2.36,-2.5,350.81,-0.179,-0.278,0.842,82.06,688.8,3497.6,60.9,74.7,0,0,0
1772701619.0,432.58,23750.7,1.66,-12.28,175.38,-0.286,-0.247,1.692,77.08,690.6,3988.2,66.0,87.5,0,0,0
1772701620.0,457.21,20486.3,0.24,-7.8,333.67,0.266,-0.145,0.498,77.59,668.3,3741.2,60.6,91.7,0,0,0
1772701621.0,429.33,22467.3,0.1,-6.33,142.54,0.083,-0.008,1.028,80.46,643.0,4315.6,57.1,88.1,0,0,0
1772701622.0,475.81,27953.4,2.0,-6.08,184.66,0.259,0.302,0.672,82.83,604.0,3764.5,71.1,84.5,0,0,0
1772701623.0,444.56,20163.0,5.07,13.44,258.13,-0.08,0.085,1.295,77.36,649.6,3414.4,66.7,87.0,0,0,0
1772701624.0,460.96,28438.8,0.09,-6.04,243.05,-0.227,-0.332,0.938,84.2,671.3,3959.0,62.7,86.5,0,0,0
1772701625.0,433.86,26437.6,1.91,3.9,260.97,-0.238,-0.566,1.02,80.19,643.1,3802.5,68.1,85.0,0,0,0
1772701626.0,446.63,23086.0,0.33,5.61,112.35,0.086,-0.097,0.622,77.98,654.3,4378.1,70.4,85.6,0,0,0
1772701627.0,451.71,23336.0,0.87,17.33,21.82,0.473,-0.061,1.487,77.28,664.7,4196.0,66.2,95.6,0,0,0
1772701628.0,456.99,21701.0,0.54,5.43,286.16,-0.066,-0.033,0.33,73.32,654.2,3428.9,67.4,88.2,0,0,0
1772701629.0,482.84,29058.1,0.73,-1.8,256.14,-0.025,0.092,1.571,80.27,666.8,3696.7,66.1,88.5,0,0,0
1772701630.0,480.71,25637.1,0.34,-4.36,314.97,0.161,0.271,0.294,74.52,633.8,3725.7,54.0,88.8,0,0,0
1772701631.0,419.92,26162.1,-1.35,0.51,54.83,0.387,0.503,1.503,82.74,661.3,3694.8,61.5,93.2,0,0,0
1772701632.0,442.67,19580.4,0.92,9.44,333.37,0.084,-0.056,0.794,78.93,660.9,3680.0,62.7,85.1,0,0,0
1772701633.0,481.76,24662.7,3.57,-1.91,73.13,-0.718,-0.314,0.956,76.78,713.2,3885.7,74.0,92.1,0,0,0
1772701634.0,439.59,26980.6,2.27,-5.46,145.83,0.47,0.357,1.499,80.48,661.9,3961.3,61.4,81.2,0,0,0
1772701635.0,462.52,23164.5,-2.87,-8.86,166.08,0.124,0.101,1.149,73.09,707.6,4080.0,65.5,81.7,0,0,0
1772701636.0,406.94,23450.1,0.56,3.69,206.01,0.096,-0.266,1.642,83.15,651.7,3561.4,68.2,87.3,0,0,0
1772701637.0,465.79,19324.9,3.57,2.34,299.5,0.343,-0.013,0.2,82.65,634.4,3704.3,66.2,87.4,0,0,0
1772701638.0,389.5,24062.6,0.1,1.51,304.86,-0.488,0.377,0.758,81.12,615.5,3556.2,66.2,83.8,0,0,0
1772701639.0,434.16,23121.2,2.73,7.87,357.51,0.286,-0.217,0.913,74.09,673.9,4100.1,64.4,86.8,0,0,0
1772701640.0,395.3,21317.4,0.47,5.73,283.29,-0.041,-0.2,0.656,78.42,663.5,3950.5,58.9,83.9,0,0,0
1772701641.0,476.19,18243.1,-2.16,-8.67,105.2,0.244,0.009,1.18,76.14,571.8,3720.9,62.3,79.6,0,0,0
1772701642.0,452.99,28312.8,-0.11,7.62,243.2,0.297,0.01,1.423,82.63,645.6,3960.3,73.4,68.5,0,0,0
1772701643.0,424.09,24998.7,0.92,-3.07,34.75,-0.067,-0.206,1.291,82.76,646.9,3559.8,63.8,78.0,0,0,0
1772701644.0,409.92,20789.9,-2.06,-2.63,200.5,0.156,-0.189,1.623,78.36,660.9,4053.1,63.4,97.0,0,0,0
1772701645.0,442.42,22943.1,0.63,6.31,204.82,0.332,-0.217,0.679,76.57,626.9,3510.2,59.5,83.9,0,0,0
1772701646.0,468.44,27115.0,3.17,-7.85,325.99,0.074,-0.457,1.229,71.67,677.5,3754.1,63.2,73.9,0,0,0
1772701647.0,395.36,26665.4,1.19,10.2,64.27,0.157,-0.082,0.576,88.68,665.3,4101.3,61.2,83.1,0,0,0
1772701648.0,412.97,24327.0,3.32,10.91,25.59,-0.377,-0.041,0.889,80.68,614.8,3920.5,60.4,84.0,0,0,0
1772701649.0,461.96,20121.1,1.22,-13.78,324.95,0.36,0.1,0.935,84.05,613.9,3929.8,70.1,98.8,0,0,0
1772701650.0,451.76,21271.5,1.34,-4.06,6.93,0.041,0.236,1.236,79.36,646.9,4241.1,63.9,85.5,0,0,0
1772701651.0,447.35,22777.6,2.98,-5.45,77.32,-0.318,0.066,0.505,84.47,644.7,3438.8,59.7,75.9,0,0,0
1772701652.0,454.54,22878.5,0.4,-7.39,149.72,-0.896,0.445,2.0,78.24,675.0,3475.9,63.4,89.8,0,0,0
1772701653.0,467.67,28676.0,0.61,3.74,139.95,0.536,0.109,1.661,83.22,674.0,3885.3,63.3,87.9,0,0,0
1772701654.0,492.41,20536.0,2.16,-11.69,201.35,-0.215,-0.274,0.856,77.42,658.1,4072.4,66.5,77.6,0,0,0
1772701655.0,421.15,26360.4,-2.27,-10.97,278.73,0.182,0.001,1.765,80.39,680.0,3447.6,73.5,77.4,0,0,0
1772701656.0,433.78,20435.0,2.97,0.82,129.38,0.072,0.222,1.005,77.01,654.5,3646.6,60.1,78.0,0,0,0
1772701657.0,477.19,22077.2,2.15,14.36,244.25,-0.395,0.221,0.54,78.25,654.5,3345.9,57.7,89.2,0,0,0
1772701658.0,478.73,27362.0,2.03,15.92,259.43,0.382,0.21,1.055,79.82,605.3,3980.1,73.5,85.1,0,0,0
1772701659.0,452.93,29326.4,-1.08,-17.76,232.98,0.185,0.319,1.595,82.83,674.2,3947.6,55.4,76.0,0,0,0
1772701660.0,436.59,22524.0,2.87,0.65,47.14,0.758,-0.58,1.143,86.31,674.9,4099.7,68.0,91.0,0,0,0
1772701661.0,440.24,23267.2,-0.41,12.44,181.84,-0.215,-0.48,1.15,80.91,640.5,3992.3,70.7,97.9,0,0,0
1772701662.0,439.81,29251.2,0.53,-6.21,137.41,0.248,0.356,1.212,79.28,635.8,4019.9,71.3,82.9,0,0,0
1772701663.0,430.54,20733.8,1.39,-0.72,115.4,-0.111,-0.269,0.2,79.3,634.0,3967.3,67.7,85.6,0,0,0
1772701664.0,489.16,25300.5,0.18,-2.24,343.25,-0.065,0.372,0.2,79.71,653.7,3715.7,60.1,95.5,0,0,0
1772701665.0,469.73,25219.0,2.04,15.62,38.8,0.153,0.157,0.263,79.79,573.7,3744.9,55.3,98.6,0,0,0
1772701666.0,533.56,23519.6,-2.74,-4.01,92.95,0.402,0.223,0.83,80.21,683.4,3583.3,71.9,80.3,0,0,0
1772701667.0,483.7,24008.2,-0.16,-3.06,150.79,-0.035,0.147,1.109,82.05,633.1,3642.1,57.2,84.9,0,0,0
1772701668.0,426.31,32298.8,6.15,-2.16,168.08,-0.131,-0.257,0.866,80.39,695.9,3621.9,73.3,72.3,0,0,0
1772701669.0,526.15,25274.5,-0.08,11.94,177.79,-0.03,0.011,0.923,83.24,627.0,3766.6,67.3,86.6,0,0,0
1772701670.0,420.66,29165.7,0.24,-6.42,153.94,0.018,0.357,1.039,80.65,626.5,3451.4,68.9,79.3,0,0,0
1772701671.0,388.66,30001.3,-0.92,-11.6,171.99,0.171,-0.612,1.33,74.5,667.0,3601.3,61.8,83.2,0,0,0
1772701672.0,450.06,20091.4,1.33,4.69,250.4,0.337,-0.073,1.086,85.65,601.9,4167.9,61.6,95.8,0,0,0
1772701673.0,472.34,28599.2,-1.39,7.39,343.7,0.04,-0.269,0.932,80.09,646.3,3900.1,58.8,76.9,0,0,0
1772701674.0,411.25,28723.5,-4.36,-4.81,216.62,-0.228,0.046,0.958,77.41,660.5,4167.8,66.1,85.8,0,0,0
1772701675.0,444.79,26498.7,2.06,15.41,236.14,0.174,-0.254,0.866,81.26,659.6,3294.9,69.9,79.3,0,0,0
1772701676.0,446.02,28391.1,2.66,-13.62,186.07,-0.137,-0.636,0.714,81.83,635.4,3118.9,69.6,78.5,0,0,0
1772701677.0,457.9,27237.1,0.17,0.75,22.74,0.411,0.443,0.468,83.03,646.5,3246.0,75.8,70.5,0,0,0
1772701678.0,457.76,24576.5,0.79,1.03,25.62,0.246,0.258,0.635,79.38,678.1,4109.6,72.0,88.6,0,0,0
1772701679.0,418.58,27692.9,0.95,7.72,243.09,0.143,-0.458,1.009,78.12,617.2,4076.5,61.8,76.7,0,0,0
1772701680.0,410.36,24960.1,-0.56,5.52,263.4,0.508,-0.365,1.267,80.78,645.9,3845.5,61.8,90.8,0,0,0
1772701681.0,414.04,23329.8,3.76,7.0,256.04,0.536,-0.114,1.517,77.07,675.3,3954.2,69.0,90.0,0,0,0
1772701682.0,446.59,24826.3,2.12,15.11,202.66,-0.153,-0.46,0.781,77.63,666.2,3476.0,74.1,88.3,0,0,0
1772701683.0,448.91,26049.6,2.55,11.62,294.12,-0.183,0.282,1.086,79.47,621.3,3936.6,62.8,92.7,0,0,0
1772701684.0,452.67,27227.9,0.4,-8.15,290.9,-0.432,0.2,1.281,81.78,627.8,3950.4,62.5,83.8,0,0,0
1772701685.0,410.65,25560.5,1.64,-7.58,241.41,-0.058,-0.17,1.429,77.4,632.5,3324.0,70.4,83.7,0,0,0
1772701686.0,462.46,27558.5,3.02,0.83,219.18,0.094,-0.148,0.56,83.14,582.1,3481.6,67.8,92.4,0,0,0
1772701687.0,506.34,22993.0,4.1,7.45,101.8,0.039,-0.088,0.953,76.01,688.3,3629.0,72.2,94.7,0,0,0
1772701688.0,468.31,25820.2,-0.74,12.88,45.6,0.218,-0.099,0.596,82.23,646.9,3437.9,54.8,75.2,0,0,0
1772701689.0,532.66,19538.2,-0.62,11.11,278.76,0.302,-0.218,0.692,83.14,682.5,4246.6,60.1,83.8,0,0,0
1772701690.0,407.09,30334.1,1.0,3.21,230.39,0.636,-0.207,0.905,74.29,631.9,4230.7,68.7,93.1,0,0,0
1772701691.0,483.72,25595.7,5.56,8.2,207.48,-0.089,-0.098,1.092,77.36,645.5,4078.0,59.5,83.2,0,0,0
1772701692.0,474.95,21670.0,-1.85,-13.71,217.22,0.136,-0.06,1.227,83.16,689.1,3955.8,66.7,84.7,0,0,0
1772701693.0,446.82,26908.4,1.08,-25.68,40.44,-0.687,-0.306,1.332,80.35,685.0,3940.2,60.9,82.4,0,0,0
1772701694.0,472.23,26622.9,2.85,-8.11,83.17,-0.162,0.075,0.778,82.89,609.6,3171.3,70.1,84.5,0,0,0
1772701695.0,490.25,24769.5,-0.08,-3.61,232.08,-0.067,0.126,0.656,74.1,630.3,3734.1,70.3,97.1,0,0,0
1772701696.0,425.05,23582.3,3.19,-8.93,141.76,0.588,0.539,0.77,84.39,681.0,4141.0,63.1,85.9,0,0,0
1772701697.0,472.35,23038.4,2.42,0.9,101.68,-0.195,-0.155,0.51,80.51,664.0,3962.6,62.9,93.0,0,0,0
1772701698.0,483.62,30080.7,-0.62,4.09,288.87,0.127,0.06,0.779,74.03,645.1,3486.1,63.2,71.4,0,0,0
1772701699.0,496.81,18710.8,2.28,12.64,168.27,0.189,0.674,0.515,76.56,675.5,3653.2,65.2,82.2,0,0,0
1772701700.0,551.3,27925.6,0.07,-13.6,263.03,0.356,-0.699,1.442,76.62,648.9,3811.3,64.9,87.3,0,0,0
1772701701.0,475.6,25104.9,0.84,10.09,247.59,0.392,0.003,0.761,78.33,644.4,4019.5,64.2,92.5,0,0,0
1772701702.0,499.46,18859.3,0.27,-7.34,328.35,-0.113,0.41,1.246,83.51,643.8,3820.6,78.7,79.0,0,0,0
1772701703.0,468.65,26384.4,2.72,-4.32,192.32,-0.056,0.261,1.315,80.46,706.6,3534.4,65.9,90.1,0,0,0
1772701704.0,434.29,28062.5,-0.97,-4.51,23.89,0.028,0.318,0.822,74.51,679.2,4075.3,64.2,93.8,0,0,0
1772701705.0,487.67,23285.1,-1.19,-12.79,259.01,0.229,0.19,0.975,83.69,627.8,3260.3,59.4,83.8,0,0,0
1772701706.0,412.93,21704.4,-0.94,8.8,67.72,-0.309,-0.141,0.909,85.42,667.3,3920.9,63.3,70.8,0,0,0
1772701707.0,425.27,24265.6,-0.46,-15.68,31.38,-0.552,0.461,0.607,76.5,661.6,3559.6,64.8,88.8,0,0,0
1772701708.0,445.78,26105.1,2.38,31.39,158.31,0.166,0.628,0.537,75.19,632.9,3231.5,67.4,88.5,0,0,0
1772701709.0,466.89,24602.9,-2.68,0.7,210.05,-0.04,-0.046,0.755,79.86,672.3,3731.0,73.0,87.8,0,0,0
1772701710.0,447.64,22439.0,-0.89,9.53,340.77,-0.181,-0.101,1.253,75.9,626.9,4201.6,56.1,79.2,0,0,0
1772701711.0,418.23,25407.9,3.12,15.33,79.07,0.035,0.003,0.978,80.21,648.2,3505.5,58.7,73.5,0,0,0
1772701712.0,422.98,22327.7,2.34,-6.49,287.41,-0.389,-0.225,1.284,79.04,650.6,4919.3,62.2,102.2,0,0,0
1772701713.0,497.95,25830.3,2.79,8.17,271.37,-0.07,0.259,1.198,85.35,632.7,3859.9,64.4,98.1,0,0,0
1772701714.0,400.05,24178.7,0.88,5.53,134.46,0.118,-0.543,0.731,77.25,667.9,3692.2,61.6,83.4,0,0,0
1772701715.0,452.69,20950.4,1.18,-2.17,194.02,0.238,0.516,0.373,83.18,629.2,4054.2,62.4,96.8,0,0,0
1772701716.0,459.99,26808.0,1.62,9.66,169.68,-0.4,-0.077,0.842,80.26,651.1,3387.0,57.7,84.6,0,0,0
1772701717.0,414.77,24220.5,0.88,16.76,13.35,0.354,0.264,0.376,77.17,601.3,4116.6,61.2,86.2,0,0,0
1772701718.0,402.21,22534.7,1.58,-7.42,38.84,0.255,0.035,1.561,82.37,693.3,4307.7,66.0,91.6,0,0,0
1772701719.0,480.36,28614.7,0.39,-7.07,21.4,0.14,0.073,1.325,78.1,654.4,4455.0,63.6,72.6,0,0,0
1772701720.0,444.18,23801.8,0.8,9.24,76.99,0.277,0.627,0.957,81.85,668.5,3106.4,63.2,88.0,0,0,0
1772701721.0,425.18,25608.3,4.7,1.09,238.95,0.075,-0.265,1.386,83.65,648.4,3340.1,68.1,85.8,0,0,0
1772701722.0,450.67,22702.6,0.43,6.43,321.45,-0.269,0.556,1.37,79.62,643.3,3593.2,63.0,77.3,0,0,0
1772701723.0,445.48,28862.4,2.26,6.03,239.33,-0.021,-0.127,1.131,81.43,679.0,3636.5,58.7,71.9,0,0,0
1772701724.0,464.5,23075.5,1.19,9.28,105.95,0.001,-0.034,1.139,83.15,679.5,3961.9,68.5,75.8,0,0,0
1772701725.0,470.84,23691.1,2.93,-3.61,173.98,-0.582,-0.06,0.376,80.27,641.0,3862.2,64.7,90.7,0,0,0
1772701726.0,472.77,28275.5,0.98,-9.24,197.81,0.24,0.201,1.271,73.37,705.7,3817.1,64.5,91.7,0,0,0
1772701727.0,483.43,22156.0,0.03,-5.52,325.54,0.439,-0.109,1.245,78.98,690.9,3892.7,60.1,89.8,0,0,0
1772701728.0,423.95,22493.7,-0.67,24.09,269.15,-0.154,-0.056,1.047,81.48,676.5,4052.4,73.9,87.2,0,0,0
1772701729.0,456.05,24212.3,1.02,14.27,47.9,0.206,0.173,0.882,79.37,651.4,4046.5,64.6,91.4,0,0,0
1772701730.0,422.02,23882.5,3.58,-7.53,12.96,-0.133,-0.166,1.048,75.62,674.7,3621.3,68.0,95.2,0,0,0
1772701731.0,494.53,22624.1,3.86,6.71,316.21,-0.468,0.581,0.408,80.27,650.1,3970.0,62.6,83.3,0,0,0
1772701732.0,423.34,29583.5,-0.36,5.25,150.28,-0.096,0.007,0.595,78.75,656.9,4027.5,67.1,81.6,0,0,0
1772701733.0,448.11,27310.1,2.58,5.43,144.33,0.239,0.062,1.327,77.23,628.0,3657.9,65.2,93.4,0,0,0
1772701734.0,453.57,22093.4,0.75,11.54,128.85,-0.092,0.812,0.284,78.68,604.2,4017.1,67.2,69.2,0,0,0
1772701735.0,465.9,28317.5,-0.61,9.5,194.28,-0.432,0.115,0.966,79.77,631.3,3812.0,63.8,85.6,0,0,0
1772701736.0,431.61,22621.9,1.92,11.55,90.44,-0.414,0.31,0.431,79.87,617.9,4008.4,67.6,82.7,0,0,0
1772701737.0,470.12,22852.7,1.8,5.3,50.42,-0.173,0.74,1.697,73.81,645.4,4005.0,70.1,94.2,0,0,0
1772701738.0,478.65,27781.1,2.64,-14.17,248.1,-0.34,-0.471,0.972,84.22,644.9,3727.8,70.3,82.1,0,0,0
1772701739.0,409.21,24911.4,-1.63,-8.22,288.47,-0.279,-0.139,0.742,84.23,643.6,3754.9,52.6,89.4,0,0,0
1772701740.0,434.19,21019.1,1.58,-2.98,179.96,0.128,-0.894,0.922,77.56,660.7,4278.3,70.0,95.3,0,0,0
1772701741.0,511.41,26704.5,2.25,10.22,201.06,0.135,-0.292,1.49,74.38,678.9,3777.3,62.6,66.8,0,0,0
1772701742.0,445.95,24162.2,3.51,-14.01,70.62,-0.125,-0.338,1.431,76.49,678.5,3763.2,61.9,81.8,0,0,0
1772701743.0,399.5,26470.4,1.7,-15.68,67.36,-0.509,0.019,0.92,83.7,636.5,3290.0,67.2,93.2,0,0,0
1772701744.0,430.22,25137.1,-1.2,-6.67,19.86,0.57,0.043,0.561,79.57,631.9,4084.0,69.3,83.2,0,0,0
1772701745.0,396.15,23400.5,6.34,6.42,19.65,0.007,0.094,0.509,83.74,651.2,3897.9,69.2,80.2,0,0,0
1772701746.0,469.78,25996.4,2.4,12.31,241.01,0.305,-0.002,0.841,79.88,663.8,3848.7,60.6,74.5,0,0,0
1772701747.0,414.82,24937.0,-0.25,-0.16,288.71,0.054,0.097,1.226,78.09,622.0,3968.4,61.0,78.8,0,0,0
1772701748.0,448.57,18329.8,-0.36,-7.69,6.83,-0.293,0.15,1.128,77.25,652.2,3944.3,54.7,101.2,0,0,0
1772701749.0,472.18,27090.8,-0.66,9.29,47.37,0.695,-0.402,0.642,85.87,678.7,4136.0,70.7,98.0,0,0,0
1772701750.0,399.36,21858.8,1.98,10.44,351.5,0.103,0.386,1.049,79.77,637.0,3331.0,68.7,73.1,0,0,0
1772701751.0,415.81,25242.9,1.15,8.14,147.2,-0.04,-0.369,0.87,79.83,640.6,3939.4,66.1,83.0,0,0,0
1772701752.0,458.2,25905.1,2.53,7.19,232.73,-0.002,0.176,0.508,77.39,635.2,4034.5,63.3,81.7,0,0,0
1772701753.0,408.91,20972.6,2.73,6.52,40.2,0.738,0.09,0.875,79.56,697.1,3743.9,72.1,83.7,0,0,0
1772701754.0,412.02,22823.8,0.65,-6.78,326.02,0.339,-0.225,0.918,80.91,690.3,3610.6,70.6,79.1,0,0,0
1772701755.0,488.06,27144.9,-0.33,-15.7,327.77,0.024,0.05,0.702,78.51,660.8,3860.3,70.9,72.5,0,0,0
1772701756.0,460.96,22263.4,-5.42,3.88,83.42,-0.16,0.186,0.47,80.6,653.4,4241.7,63.0,79.2,0,0,0
1772701757.0,467.53,23616.5,0.63,11.64,242.33,0.613,0.117,1.373,77.95,660.7,4246.4,51.5,87.4,0,0,0
1772701758.0,460.08,28372.0,1.89,-0.75,295.88,-0.392,0.416,0.733,81.93,623.4,3804.0,64.1,98.2,0,0,0
1772701759.0,480.75,18936.5,-2.16,-22.11,10.24,-0.22,0.026,1.464,73.69,635.7,3287.0,68.7,86.1,0,0,0
1772701760.0,447.02,24530.8,2.42,6.98,66.52,0.008,0.308,0.954,80.88,689.1,3691.6,66.6,79.0,0,0,0
1772701761.0,440.0,25836.3,-1.41,-5.29,1.06,-0.092,0.88,1.336,80.62,676.6,4323.2,57.2,82.0,0,0,0
1772701762.0,468.46,24884.3,-1.48,-2.93,5.15,-0.482,-0.225,1.064,85.96,659.0,3644.3,60.1,80.1,0,0,0
1772701763.0,406.82,21433.9,3.19,4.97,226.2,-0.023,0.001,0.857,84.96,631.3,3448.6,58.4,87.0,0,0,0
1772701764.0,467.94,27701.3,-1.18,-10.29,106.8,-0.269,-0.045,1.041,76.83,668.5,3575.1,56.3,82.4,0,0,0
1772701765.0,397.71,24611.8,-1.33,-5.65,90.49,0.195,0.293,1.171,83.89,608.9,4193.1,67.7,88.3,0,0,0
1772701766.0,432.12,24502.7,-2.43,-0.8,272.96,0.398,0.191,0.358,76.85,609.0,4351.9,72.2,84.3,0,0,0
1772701767.0,388.65,22011.0,-3.77,18.61,342.65,0.062,0.33,1.086,80.39,645.2,4255.3,61.4,81.9,0,0,0
1772701768.0,434.36,25880.7,-1.15,-5.39,159.36,0.349,-0.522,0.92,78.42,667.9,3810.1,61.6,76.3,0,0,0
1772701769.0,414.47,25131.6,-0.26,-0.36,219.55,0.075,-0.076,1.257,77.62,589.2,3664.3,65.9,66.8,0,0,0
1772701770.0,446.85,24224.8,2.22,13.97,189.37,-0.607,0.032,0.214,81.24,637.0,3729.5,54.5,80.8,0,0,0
1772701771.0,469.1,25623.6,1.52,-3.93,229.71,0.231,-0.062,0.91,83.85,602.4,3956.2,62.1,105.3,0,0,0
1772701772.0,404.28,22784.1,-0.31,-18.73,108.59,-0.116,-0.156,0.76,86.58,646.7,3659.6,56.7,69.0,0,0,0
1772701773.0,456.71,28953.6,0.86,-9.19,249.16,-0.213,-0.125,1.383,78.52,661.3,3886.2,61.4,84.9,0,0,0
1772701774.0,436.03,24753.8,0.52,10.42,327.16,-0.214,-0.328,0.838,80.33,637.1,4047.8,65.4,86.5,0,0,0
1772701775.0,453.04,23328.6,4.91,-0.43,40.3,-0.006,0.182,1.388,81.76,658.7,3676.0,70.3,88.4,0,0,0
1772701776.0,462.25,21954.9,5.4,1.83,172.36,0.205,0.1,0.613,83.69,606.1,3627.1,68.2,95.5,0,0,0
1772701777.0,425.45,22201.9,-0.27,8.56,4.08,0.109,0.009,0.533,77.52,627.0,3684.7,74.9,87.5,0,0,0
1772701778.0,446.3,23004.3,-0.69,4.51,224.61,-0.592,-0.007,0.86,78.61,615.7,4158.9,63.1,87.1,0,0,0
1772701779.0,462.34,25067.8,-0.18,-13.62,300.01,-0.24,0.221,0.362,82.81,677.9,3940.6,71.7,83.7,0,0,0
1772701780.0,462.46,20426.4,-1.8,-4.89,313.47,0.472,0.271,1.075,83.28,638.9,3760.6,61.8,89.4,0,0,0
1772701781.0,474.82,26983.6,2.03,8.82,353.94,0.103,0.578,0.297,85.16,656.9,3847.1,60.1,88.2,0,0,0
1772701782.0,496.66,24164.5,3.78,2.24,245.71,0.153,-0.102,1.35,77.86,658.1,3640.3,67.6,72.5,0,0,0
1772701783.0,484.19,24634.8,2.73,-2.0,171.4,-0.249,-0.535,1.181,81.23,615.9,3475.3,61.4,78.1,0,0,0
1772701784.0,459.83,19804.7,3.09,-6.92,221.51,-0.494,0.022,1.253,76.85,664.6,3875.8,62.4,84.6,0,0,0
1772701785.0,488.63,24483.8,1.15,18.93,128.5,0.392,0.049,1.181,78.9,683.5,3581.0,63.5,95.0,0,0,0
1772701786.0,451.0,25455.8,0.61,-7.51,169.82,0.168,0.378,0.534,79.09,587.4,3917.7,63.1,91.7,0,0,0
1772701787.0,464.31,22214.4,1.21,-6.96,41.86,0.55,0.326,1.292,78.08,607.7,3743.5,58.1,86.7,0,0,0
1772701788.0,466.32,21361.7,-2.4,1.09,41.66,-0.135,0.453,1.42,78.19,643.4,4621.8,69.3,76.4,0,0,0
1772701789.0,515.55,21319.0,-0.93,-3.7,81.23,-0.206,0.52,1.465,85.75,653.4,3974.0,63.2,103.6,0,0,0
1772701790.0,450.94,24761.7,3.16,-13.46,337.02,0.053,0.206,1.107,87.36,619.0,4208.2,70.2,71.8,0,0,0
1772701791.0,441.24,23288.2,2.17,3.65,204.56,0.238,-0.078,1.046,76.65,660.6,3533.2,67.8,69.6,0,0,0
1772701792.0,495.1,24518.6,-1.84,-15.01,324.89,0.412,0.164,1.046,83.48,627.4,3750.4,69.2,70.1,0,0,0
1772701793.0,427.31,24630.8,2.05,-2.17,87.02,0.313,-0.043,1.035,85.44,606.5,3637.0,56.5,75.8,0,0,0
1772701794.0,433.91,23834.4,4.49,7.81,351.4,0.002,-0.453,0.225,75.75,686.0,3753.6,70.6,78.0,0,0,0
1772701795.0,470.82,24854.3,2.21,20.37,298.52,0.124,0.308,0.959,76.32,679.2,4179.3,72.9,89.4,0,0,0
1772701796.0,396.21,25637.8,0.55,-15.26,164.92,-0.303,-0.212,0.664,80.3,652.5,3898.1,58.0,88.2,0,0,0
1772701797.0,463.65,23753.1,-1.96,-5.52,289.47,0.314,-0.043,0.534,81.14,651.6,4127.6,76.3,78.4,0,0,0
1772701798.0,508.18,27433.9,4.75,16.7,32.42,-0.457,-0.772,0.565,83.2,659.9,3913.7,66.7,74.4,0,0,0
1772701799.0,406.38,23260.7,0.4,23.21,66.86,-0.157,0.138,0.73,77.01,679.1,3684.2,64.0,90.5,0,0,0
1772701800.0,487.86,21745.1,-0.82,-5.75,164.75,0.407,-0.187,1.817,80.73,611.3,3418.1,60.7,77.3,0,0,0
1772701801.0,391.91,22378.7,-2.79,24.65,170.5,-0.032,0.021,0.848,82.06,651.7,3315.7,66.6,77.1,0,0,0
1772701802.0,461.51,29536.2,-0.65,8.35,268.47,-0.194,-0.039,0.861,79.35,669.2,3660.0,66.1,77.2,0,0,0
1772701803.0,429.18,26870.7,2.93,-3.91,59.65,-0.098,0.209,0.703,85.21,640.8,4071.7,69.1,75.2,0,0,0
