timestamp,airspeed_kts,altitude_barometric_ft,pitch_deg,roll_deg,yaw_deg,accel_longitudinal_g,accel_lateral_g,accel_vertical_g,rpm_n1_pct,exhaust_gas_temp_c,fuel_flow_kgph,oil_pressure_psi,oil_temp_c,engine_warning,overheat_warning,flight_control_warning
1772359200.0,501.59,33237.4,7.49,42.41,357.81,-0.459,-0.689,0.44,82.14,707.2,4688.5,60.1,67.1,0,0,0
1772359201.0,347.42,35868.1,-5.45,-18.25,69.44,-0.22,-0.445,-0.156,96.83,705.0,3772.4,60.7,83.8,0,0,0
1772359202.0,378.49,46060.7,-3.41,-29.04,214.7,0.397,-0.313,0.552,99.4,738.1,3356.3,60.4,71.4,0,0,0
1772359203.0,465.78,20667.3,0.44,14.83,349.36,1.362,0.969,0.785,96.6,625.5,4679.3,60.4,83.7,0,0,0
1772359204.0,378.62,23632.5,4.58,-12.0,340.76,-1.016,-0.277,0.838,84.55,678.5,4539.1,54.3,110.8,0,0,0
1772359205.0,559.33,30604.7,0.73,-9.57,83.89,-1.728,-0.261,1.633,78.62,720.8,3981.5,67.2,92.3,0,0,0
1772359206.0,347.28,31039.3,-5.62,5.86,287.15,-1.33,-0.199,0.483,81.77,572.6,4300.9,60.8,77.9,0,0,0
1772359207.0,473.66,14920.9,0.7,1.01,184.83,0.697,0.394,1.152,87.38,653.4,3625.8,62.8,89.7,0,0,0
1772359208.0,544.7,22031.9,-2.88,1.6,276.44,-0.051,0.558,0.536,79.07,738.8,4734.7,59.2,92.7,0,0,0
1772359209.0,496.44,26265.0,2.21,12.32,92.96,-1.397,-0.344,3.65,89.19,720.4,4066.0,66.4,117.1,0,0,0
1772359210.0,472.71,18202.5,-1.87,-9.68,105.85,-2.085,-0.356,1.336,78.32,714.9,3627.6,63.3,130.5,0,0,0
1772359211.0,462.16,32945.7,7.0,28.69,294.77,0.301,0.445,1.312,84.18,712.3,4984.3,56.8,89.1,0,0,0
1772359212.0,449.07,33163.4,0.53,-29.1,146.49,-0.073,-0.942,0.656,84.72,799.4,3046.9,62.0,99.1,0,0,0
1772359213.0,476.62,26752.4,8.11,-45.51,115.35,1.19,-0.646,3.877,86.03,694.1,4831.1,71.5,82.1,0,0,0
1772359214.0,479.16,25774.6,0.46,-9.96,358.46,0.254,0.727,0.732,92.16,673.8,4376.4,59.4,87.5,0,0,0
1772359215.0,439.81,26327.5,1.74,-37.1,300.15,-0.263,0.944,1.171,77.59,602.4,3852.5,54.6,97.4,0,0,0
1772359216.0,519.37,37560.1,2.83,-39.65,358.2,-0.386,-0.43,-2.845,92.28,707.9,2985.7,66.2,94.4,0,0,0
1772359217.0,583.89,22060.9,1.47,-14.92,316.32,-0.385,0.503,0.026,99.2,688.1,4549.7,72.7,114.3,0,0,0
1772359218.0,435.44,20344.1,-9.3,-36.02,49.64,0.317,-0.262,1.754,85.77,592.9,3901.4,73.1,90.6,0,0,0
1772359219.0,472.97,26162.3,15.63,-36.1,17.64,0.71,-0.481,-0.625,76.93,702.5,4820.8,61.1,98.4,0,0,0
1772359220.0,596.2,25176.8,2.53,37.53,69.65,0.705,-1.408,1.642,86.53,729.4,3632.1,56.7,88.1,0,0,0
1772359221.0,507.86,30710.1,3.71,11.31,271.69,-1.817,-0.587,0.813,82.54,737.4,3697.0,60.8,75.0,0,0,0
1772359222.0,419.29,6764.1,0.78,17.76,175.64,-0.778,0.382,3.168,94.65,692.8,4969.3,69.4,101.8,0,0,0
1772359223.0,507.12,26141.6,-7.62,4.36,317.88,-1.029,-0.405,2.334,76.77,699.2,4338.0,72.5,100.5,0,0,0
1772359224.0,475.15,16179.2,-1.11,-34.24,135.2,0.812,-0.246,0.07,90.95,696.6,4022.3,62.7,80.7,0,0,0
1772359225.0,413.22,21861.4,-3.28,4.47,151.41,-1.417,-0.516,-0.864,79.03,708.2,3948.5,63.4,81.5,0,0,0
1772359226.0,456.9,33491.8,-4.63,-36.28,91.85,-1.725,-0.107,2.255,71.0,653.2,3452.3,46.0,93.7,0,0,0
1772359227.0,502.07,26259.8,2.77,-26.55,154.01,0.9,1.51,1.293,92.04,681.3,3769.0,65.0,88.8,0,0,0
1772359228.0,400.98,25177.7,4.35,-7.29,10.74,-0.106,-1.242,1.615,93.79,758.6,5308.9,63.0,100.5,0,0,0
1772359229.0,386.66,17966.8,0.24,-34.59,213.1,0.738,-0.981,1.399,82.93,574.4,3935.2,66.2,94.9,0,0,0
1772359230.0,500.08,25098.2,5.13,-16.6,198.44,0.264,-0.464,0.948,90.11,661.9,4708.1,61.8,98.3,0,0,0
1772359231.0,616.83,17870.5,-5.2,-1.22,231.51,-0.197,-0.022,1.813,83.45,696.3,4064.1,57.8,108.2,0,0,0
1772359232.0,336.84,29368.6,-3.16,40.82,116.28,0.893,-0.747,1.407,81.41,784.0,4398.4,59.8,83.1,0,0,0
1772359233.0,453.63,30766.5,3.36,-46.81,173.29,1.147,-0.973,1.71,98.09,694.4,3204.8,47.7,92.2,0,0,0
1772359234.0,473.4,21864.2,3.42,-0.63,44.41,-0.195,-0.103,0.891,85.08,702.5,4450.1,57.5,82.6,0,0,0
1772359235.0,452.02,31203.5,-1.94,-51.24,325.4,-1.175,0.394,0.91,83.55,678.3,4599.7,47.6,105.2,0,0,0
1772359236.0,428.23,31815.5,5.45,-12.06,321.94,-0.46,-0.571,1.126,80.2,740.2,4855.2,61.6,98.9,0,0,0
1772359237.0,497.15,31524.8,6.91,-5.93,52.45,1.568,0.202,1.013,85.72,753.1,3965.4,53.0,94.1,0,0,0
1772359238.0,352.74,30170.1,-1.81,-30.24,251.03,0.246,0.465,0.397,97.37,735.1,3886.0,59.6,86.5,0,0,0
1772359239.0,564.38,27820.3,1.74,-56.97,39.18,0.699,-1.973,2.339,80.09,776.8,3989.2,70.1,97.1,0,0,0
1772359240.0,408.95,25809.4,-4.17,-8.66,323.48,-1.048,-0.26,1.898,94.39,745.5,3604.9,69.3,73.7,0,0,0
1772359241.0,503.25,26371.6,6.97,17.61,262.54,0.599,0.073,1.591,88.8,718.8,3070.6,60.2,105.7,0,0,0
1772359242.0,555.62,29585.6,1.34,-9.66,308.47,-1.329,-0.397,1.094,85.8,753.7,3956.9,50.6,90.6,0,0,0
1772359243.0,550.66,31441.6,0.36,-10.45,109.59,0.788,0.212,-0.371,103.14,714.1,2429.9,56.2,80.2,0,0,0
1772359244.0,544.56,31486.7,2.17,15.87,207.13,-0.789,0.628,1.885,82.99,691.8,3010.6,78.7,101.3,0,0,0
1772359245.0,427.06,19123.5,6.72,-50.64,198.94,0.404,-0.689,2.329,90.2,757.9,3971.1,53.9,99.3,0,0,0
1772359246.0,507.52,7285.2,-7.67,-33.3,202.4,-0.246,-0.157,1.335,86.74,774.6,4738.7,68.2,75.6,0,0,0
1772359247.0,426.56,27284.6,2.8,5.04,230.69,-0.221,-0.282,-0.774,77.21,822.9,3904.5,63.1,79.2,0,0,0
1772359248.0,499.25,22053.8,4.86,-44.94,30.58,1.096,-0.905,2.217,82.94,770.4,4354.4,54.2,73.2,0,0,0
1772359249.0,381.65,28082.9,7.73,18.68,357.37,1.248,-0.465,0.919,77.64,690.1,4937.9,50.9,94.5,0,0,0
1772359250.0,467.29,11259.7,4.16,31.7,19.58,0.263,-0.93,1.855,74.11,648.4,3836.7,66.4,92.2,0,0,1
1772359251.0,519.59,26064.6,4.71,23.79,318.2,-0.18,1.13,-0.033,82.38,646.7,3985.8,57.7,93.7,0,0,0
1772359252.0,346.44,28879.8,7.41,-1.82,229.9,1.046,-0.712,0.763,75.19,658.4,3156.3,60.3,118.2,0,0,0
1772359253.0,543.93,28858.7,1.24,-21.76,303.59,0.179,-0.362,1.726,83.18,592.3,3900.3,69.2,94.4,0,0,0
1772359254.0,612.46,8082.7,-4.96,19.3,173.27,1.209,1.239,1.889,88.91,631.4,3280.7,60.7,85.0,0,0,0
1772359255.0,437.97,40328.8,5.65,-24.8,249.48,-0.821,-0.169,0.528,83.22,673.4,3985.1,64.6,91.5,0,0,0
1772359256.0,488.13,17075.2,2.25,-12.01,325.61,0.07,-1.585,-0.011,87.18,587.8,4146.3,61.9,110.9,0,0,0
1772359257.0,465.37,23211.3,-5.23,23.95,309.06,0.939,0.592,0.889,79.03,756.1,4891.3,62.4,76.5,0,0,0
1772359258.0,551.73,16873.9,9.2,10.25,235.38,0.388,-0.541,0.978,98.15,728.7,3653.4,58.8,89.3,0,0,0
1772359259.0,462.14,34923.9,-4.17,-6.92,298.19,1.4,0.135,-0.017,86.81,751.1,3744.1,62.9,95.4,0,0,0
1772359260.0,402.06,19322.7,10.09,41.51,35.56,-0.394,1.827,3.767,80.56,722.4,4432.1,50.6,96.3,0,0,0
1772359261.0,439.18,18811.1,-6.79,-38.23,336.64,-1.525,-0.049,0.884,83.25,715.2,4081.5,45.8,69.5,0,0,0
1772359262.0,539.39,16696.8,7.3,-20.04,224.37,0.217,0.735,-0.103,86.41,726.6,3695.1,60.8,61.8,1,0,0
1772359263.0,602.99,21226.6,-2.8,-14.42,49.4,0.349,-0.706,-0.837,87.78,762.7,4671.3,60.3,118.8,0,0,0
1772359264.0,576.59,24200.6,-5.73,-21.03,293.42,1.466,-0.552,0.571,70.35,754.1,4537.2,63.4,96.8,0,0,0
1772359265.0,496.12,23303.2,-5.01,-22.28,89.24,0.341,0.648,-1.951,89.25,651.2,4635.2,51.8,92.7,0,0,0
1772359266.0,437.12,28871.2,5.83,-23.73,169.62,-0.613,-0.809,2.004,78.82,789.9,3608.4,68.1,94.1,0,0,0
1772359267.0,558.9,40390.9,-1.91,-9.33,235.91,-0.635,1.467,0.275,86.31,702.3,4860.0,46.9,79.6,0,0,0
1772359268.0,484.92,25327.9,-0.79,-34.67,28.29,-0.797,0.065,4.044,94.98,712.7,4815.7,53.6,62.7,1,0,0
1772359269.0,497.18,22555.2,-2.01,30.23,210.17,0.668,-0.237,3.813,86.61,737.4,3677.8,59.6,103.0,0,0,0
1772359270.0,531.33,14370.5,-1.99,-3.57,82.78,-0.476,1.238,1.634,89.31,630.2,3609.6,52.4,82.6,0,0,0
1772359271.0,444.23,26106.8,3.43,-7.39,120.01,1.251,0.365,-3.425,76.15,653.3,3472.4,59.7,99.9,0,0,0
1772359272.0,490.61,22188.5,-6.6,22.13,188.88,0.584,-0.078,0.317,82.7,588.3,3866.9,62.0,94.8,0,0,0
1772359273.0,560.39,32243.4,1.3,-57.82,225.24,-0.366,-0.232,1.758,77.72,584.5,4605.2,54.3,112.2,0,0,0
1772359274.0,614.27,26296.1,-2.18,23.04,40.66,0.945,-0.643,1.445,86.84,635.0,3531.4,64.8,85.9,0,0,0
1772359275.0,177.31,29194.3,-0.21,-20.36,299.26,-0.376,-0.318,1.05,72.64,686.4,3746.2,65.3,79.3,0,0,0
1772359276.0,445.53,25234.1,0.44,8.51,316.24,-0.119,0.08,-0.27,87.42,716.4,3636.8,60.7,56.1,0,0,0
1772359277.0,482.14,18209.8,2.87,-18.08,36.87,-0.549,0.992,3.147,86.55,705.4,4283.3,63.5,102.9,0,0,0
1772359278.0,709.61,30695.4,-2.72,4.59,314.42,1.857,-0.004,0.871,73.0,666.6,3541.9,49.7,64.1,0,0,0
1772359279.0,338.39,23032.1,-0.61,5.6,345.48,1.265,-0.031,1.415,75.45,729.5,4103.2,63.7,103.8,0,0,0
1772359280.0,630.25,28733.5,-0.3,12.72,210.47,0.08,-0.757,2.738,84.03,653.8,3643.3,55.6,104.2,0,0,0
1772359281.0,530.11,11752.2,-1.11,13.27,21.07,0.027,0.049,1.902,75.47,643.2,4812.0,65.0,93.4,1,0,0
1772359282.0,582.19,22091.1,-0.3,-9.09,42.02,-0.878,2.265,0.667,77.65,728.9,4521.2,62.4,70.7,0,0,0
1772359283.0,352.75,29191.2,3.12,21.57,111.74,-0.156,-0.659,-0.246,85.18,638.4,4320.4,48.3,82.9,0,0,0
1772359284.0,474.64,27957.4,1.47,40.17,344.26,0.726,-1.437,2.615,85.01,753.3,4131.1,67.2,99.8,0,0,0
1772359285.0,347.15,25029.6,1.84,14.13,121.94,1.768,0.169,1.04,76.14,610.5,3760.2,68.5,87.7,0,0,0
1772359286.0,413.31,17595.7,-6.26,-13.79,91.78,-0.72,-0.14,0.763,83.93,691.0,4026.2,54.9,91.4,0,0,0
1772359287.0,562.83,15929.3,-2.76,-3.98,349.96,0.112,-0.772,-0.276,82.06,712.1,4084.3,37.4,102.8,0,0,0
1772359288.0,434.42,27380.0,-0.06,-32.93,337.47,0.516,-1.275,0.196,90.84,526.8,4324.9,65.3,90.7,0,0,0
1772359289.0,563.36,23448.4,2.44,-6.51,109.74,-0.193,0.129,1.361,81.18,728.1,3597.2,61.1,89.4,0,0,0
1772359290.0,478.69,35931.7,-6.1,18.3,254.32,-0.255,-0.167,2.352,84.73,636.9,3278.2,47.0,91.8,0,0,0
1772359291.0,585.17,30432.7,4.93,-35.12,248.31,0.871,1.158,-0.461,81.64,788.0,2590.6,65.0,99.2,0,0,0
1772359292.0,461.77,24832.1,1.57,46.67,204.37,0.623,-0.649,1.006,85.07,580.7,3730.7,43.1,95.7,0,0,0
1772359293.0,558.13,31930.4,-1.54,2.38,288.76,0.966,-0.289,1.27,81.9,781.4,3550.7,61.5,97.5,0,0,0
1772359294.0,467.06,34095.8,-2.52,12.18,128.31,3.062,0.045,1.411,80.81,681.1,3151.2,58.8,107.1,0,0,0
1772359295.0,360.44,25986.5,1.01,-24.02,79.56,0.192,0.041,0.769,88.17,695.1,5169.9,58.0,100.3,0,0,0
1772359296.0,381.92,33462.1,8.85,-26.24,169.02,-0.053,-0.29,1.774,87.53,673.6,3881.8,57.8,123.4,0,0,0
1772359297.0,487.18,26390.7,7.89,4.75,38.13,2.163,-0.84,1.488,91.45,669.8,4682.2,73.4,76.0,0,0,0
1772359298.0,397.17,23514.8,-2.83,11.77,337.66,-0.188,1.788,0.986,87.32,656.5,3526.9,55.5,63.8,0,0,0
1772359299.0,407.85,28382.4,9.97,-8.78,316.14,-1.572,0.153,-0.985,83.22,635.0,4022.0,57.3,94.7,0,0,0
1772359300.0,391.47,33710.6,-1.95,45.3,249.53,1.677,0.488,-0.785,67.95,761.7,4504.2,62.8,118.0,0,0,0
1772359301.0,657.38,28070.6,-6.53,44.87,231.54,0.133,-1.962,-0.289,81.58,707.8,3500.7,56.9,108.0,0,0,0
1772359302.0,475.66,26783.0,-8.63,-28.8,262.86,0.621,-0.652,1.005,92.59,745.7,5184.2,56.7,88.4,0,0,0
1772359303.0,520.75,25785.7,-5.14,-31.23,205.63,1.225,1.173,0.244,82.75,667.0,4479.3,52.2,95.8,0,0,0
1772359304.0,596.65,30942.9,-2.9,-62.47,346.87,0.413,-0.46,2.256,89.84,674.4,4150.7,42.4,94.1,0,0,1
1772359305.0,411.64,43441.5,-0.75,-29.53,329.31,0.123,0.013,2.18,79.48,703.1,4272.8,54.4,100.7,0,0,0
1772359306.0,460.39,25721.5,2.83,-14.48,199.98,-0.607,0.135,1.253,88.64,685.5,4736.0,65.8,125.4,0,0,0
1772359307.0,542.97,23235.9,-5.7,33.39,333.93,0.705,1.117,1.949,92.67,754.8,3860.7,62.6,93.1,0,0,0
1772359308.0,644.2,14857.8,-4.06,-18.35,88.73,1.431,1.143,2.084,78.3,643.7,3179.8,71.1,76.8,0,0,0
1772359309.0,434.8,31471.0,0.02,-31.83,34.44,-0.789,-0.558,0.454,101.39,759.2,4735.2,50.2,113.9,0,0,0
1772359310.0,379.27,17962.7,-0.76,33.85,60.05,-0.411,1.759,0.097,89.05,598.0,4471.4,60.3,62.8,0,0,0
1772359311.0,440.85,36883.3,9.43,71.55,236.51,-0.944,-1.537,0.449,83.36,750.1,5138.6,52.2,85.8,0,0,0
1772359312.0,345.92,26194.0,7.69,4.61,260.02,1.6,0.11,-0.688,79.66,648.8,4637.8,56.7,69.6,0,0,0
1772359313.0,536.73,30280.6,2.65,-27.24,238.52,-0.373,-1.711,2.488,83.72,775.5,4161.5,58.6,114.4,0,0,0
1772359314.0,441.52,32465.3,4.33,-55.94,145.4,0.97,1.065,1.293,83.58,725.5,4183.5,79.5,98.3,0,0,0
1772359315.0,501.06,29699.2,5.17,-21.41,32.44,0.693,0.972,3.062,89.14,639.4,3738.2,60.7,103.7,0,0,0
1772359316.0,575.47,21019.1,1.34,8.72,139.44,-0.255,0.678,0.47,78.6,699.8,2245.0,48.8,107.3,0,0,0
1772359317.0,529.83,16532.1,7.79,-38.32,6.88,0.624,0.988,1.263,84.86,695.9,3798.4,51.0,76.4,0,0,0
1772359318.0,561.07,20837.9,-8.53,-24.87,211.57,1.433,-0.073,0.826,85.78,654.6,3806.4,54.2,85.0,0,0,0
1772359319.0,501.61,29810.6,7.9,-13.03,77.21,-0.626,0.573,0.778,93.06,692.3,3559.4,59.2,107.5,0,0,0
1772359320.0,432.6,27680.4,-2.94,15.3,66.08,-0.618,-1.135,-0.055,81.79,663.9,4074.3,41.2,96.1,0,0,0
1772359321.0,489.17,36891.9,4.5,-43.19,118.33,1.652,-0.344,0.479,75.91,734.5,3690.7,56.1,107.1,0,0,0
1772359322.0,549.94,13492.7,3.53,48.93,252.3,0.786,-0.212,0.42,92.59,743.2,3790.9,57.0,109.1,0,0,0
1772359323.0,553.65,39101.5,1.69,38.02,215.6,0.597,-0.407,2.074,98.71,730.7,4125.0,49.2,89.0,0,0,0
1772359324.0,567.52,32337.9,-1.9,1.5,11.16,0.517,-1.492,2.045,68.73,674.9,5462.0,73.3,71.2,0,0,0
1772359325.0,571.45,13632.8,9.47,-2.41,212.51,0.927,-0.719,0.758,86.96,637.7,3858.7,58.3,67.1,0,0,0
1772359326.0,409.46,31268.8,-8.46,29.07,251.13,-0.955,-0.265,1.971,83.28,736.6,4247.6,58.0,96.3,0,0,0
1772359327.0,370.28,13389.0,0.36,27.54,166.43,0.443,-1.592,0.51,77.65,622.4,4312.2,66.2,91.4,0,0,0
1772359328.0,495.59,30674.5,2.0,2.79,139.19,-0.595,0.366,-1.436,84.08,822.5,4300.5,69.2,105.3,0,0,0
1772359329.0,560.66,23097.4,5.74,-3.38,234.38,0.209,-0.49,-0.376,97.03,651.1,3774.4,55.8,83.5,0,0,0
1772359330.0,508.62,30018.6,-4.3,-2.07,318.64,0.016,-0.594,3.456,89.1,652.3,3375.2,80.2,95.6,0,0,0
1772359331.0,374.73,28984.4,-6.63,-1.16,25.66,-0.088,0.105,1.494,80.59,688.6,3649.8,46.1,87.8,0,0,0
1772359332.0,352.78,32568.0,-9.9,-10.97,41.66,-2.084,-0.577,2.187,89.86,754.9,3945.7,45.1,84.9,0,0,0
1772359333.0,446.52,20161.0,8.17,27.08,140.99,0.551,1.178,-1.909,90.81,629.8,4003.5,52.7,91.2,0,0,0
1772359334.0,571.81,17410.6,5.74,42.96,288.38,1.115,0.448,1.047,93.97,744.1,4260.0,58.5,100.2,0,0,0
1772359335.0,469.31,7660.5,2.18,24.05,301.26,-0.495,-0.51,0.776,92.95,693.9,4241.9,60.7,80.2,0,0,0
1772359336.0,557.05,20819.5,-1.45,7.16,129.9,0.315,-0.92,0.394,93.03,890.2,4948.2,69.7,102.4,0,0,0
1772359337.0,647.69,26160.3,10.01,18.22,312.65,0.527,-1.222,2.286,78.22,738.3,2587.2,59.4,91.2,0,0,0
1772359338.0,408.84,32696.3,11.54,19.38,115.16,-0.741,-1.091,2.254,92.03,581.6,4541.4,64.7,71.4,0,0,0
1772359339.0,539.6,35323.9,-5.65,-24.56,318.42,0.46,-0.472,-0.516,96.39,733.6,2875.7,68.7,100.2,0,0,0
1772359340.0,479.42,23908.6,7.37,-20.63,357.27,-0.25,-0.554,0.58,68.72,685.8,4160.7,61.7,98.7,0,1,0
1772359341.0,544.24,37067.0,-4.85,6.36,133.91,0.132,1.518,-1.463,80.19,717.6,4828.8,63.7,91.8,0,0,0
1772359342.0,573.2,30194.5,1.35,-22.67,65.35,0.192,-0.834,1.033,64.09,688.9,3728.9,67.5,85.1,0,0,0
1772359343.0,518.89,27864.6,8.72,11.71,79.69,-0.198,0.354,-0.067,80.24,699.6,3395.7,62.9,109.6,0,0,0
1772359344.0,472.86,22885.3,8.39,32.49,189.7,0.603,0.932,-0.627,89.55,674.8,4020.9,62.7,97.9,0,0,0
1772359345.0,492.66,12719.9,5.74,-16.02,289.25,-0.214,1.345,1.648,94.79,739.5,4375.0,62.6,107.6,0,0,0
1772359346.0,558.37,22383.3,-6.99,25.72,14.0,0.559,1.322,2.081,84.8,669.7,3889.0,53.1,115.5,0,0,0
1772359347.0,507.14,21272.5,-0.86,49.47,222.97,0.581,0.697,1.23,73.87,636.6,3806.7,64.9,88.8,0,1,0
1772359348.0,426.63,18094.3,0.23,6.9,36.56,-0.579,0.99,1.799,96.91,635.9,3786.9,55.8,90.1,0,0,0
1772359349.0,483.78,27879.5,8.38,12.22,246.72,-0.485,0.309,-0.758,91.06,785.8,3905.3,62.6,65.7,0,0,0
1772359350.0,532.85,27406.3,1.99,-46.05,96.92,-0.258,-0.743,1.389,78.0,612.7,4234.1,61.9,113.4,0,0,0
1772359351.0,429.65,16613.1,-3.39,-13.65,285.74,1.359,0.447,1.448,91.26,643.7,3535.9,58.9,88.4,0,0,0
1772359352.0,394.77,24903.2,-3.58,-15.84,96.21,-0.238,0.969,2.104,72.95,654.2,3851.8,43.7,82.7,0,0,0
1772359353.0,606.72,16489.9,3.51,-44.79,98.87,0.463,0.316,-0.334,86.65,686.3,3597.6,55.7,91.9,1,0,0
1772359354.0,429.2,25288.3,-3.24,-45.63,122.8,-1.515,-0.112,3.278,73.61,549.4,3842.9,61.5,68.4,0,0,0
1772359355.0,464.35,26569.2,-6.26,36.58,82.71,-0.717,-0.385,0.973,91.68,708.3,3586.4,59.0,86.2,0,0,0
1772359356.0,405.67,23753.5,-3.83,-21.07,285.71,0.226,-0.721,1.424,74.24,620.8,4287.8,50.4,92.2,0,0,0
1772359357.0,591.74,24913.0,-5.44,-12.76,76.51,-0.696,-0.285,0.078,90.43,683.9,5171.6,64.8,96.7,0,0,0
1772359358.0,418.63,20649.1,6.69,19.22,216.02,0.156,0.609,1.589,84.64,699.2,3652.7,65.9,82.1,0,0,0
1772359359.0,501.82,25980.6,-4.8,15.41,26.38,1.846,0.679,-0.19,85.29,641.2,3582.0,58.6,92.8,0,0,0
1772359360.0,449.04,18823.3,5.81,0.93,163.73,-0.19,0.179,2.457,80.61,749.4,5007.9,74.7,97.1,0,0,0
1772359361.0,462.65,28386.3,-0.43,47.25,139.4,1.026,-1.399,-1.454,94.17,723.9,4333.0,42.4,74.5,0,0,0
1772359362.0,453.8,28595.6,4.4,-11.59,102.53,0.277,0.378,1.891,90.68,699.2,4107.1,50.3,69.9,0,0,0
1772359363.0,525.61,30856.3,1.25,-6.89,79.16,-0.393,0.049,2.837,92.5,556.6,3431.3,75.0,77.5,0,0,0
1772359364.0,482.81,27136.0,0.89,-31.93,182.55,1.564,0.205,1.008,86.56,680.5,4472.6,63.6,64.1,0,0,0
1772359365.0,562.45,34786.1,-4.2,-13.78,60.86,-0.554,-0.286,0.973,88.98,636.2,4321.7,66.6,73.7,0,0,0
1772359366.0,505.24,35592.0,-3.21,-0.78,12.37,0.346,-0.278,1.321,83.92,809.5,3644.9,69.5,98.5,0,0,0
1772359367.0,596.91,16315.4,1.41,11.04,184.1,-0.354,-0.898,0.71,83.39,781.0,3276.7,59.8,85.9,0,0,0
1772359368.0,462.04,17714.3,-7.9,0.82,151.79,-0.213,-0.926,-0.146,82.48,626.9,4049.6,64.5,87.6,0,0,0
1772359369.0,548.82,23932.8,-3.86,-10.09,165.98,-0.443,0.022,1.884,90.04,617.0,5122.6,53.3,80.6,0,0,0
1772359370.0,444.13,31194.4,4.56,1.75,23.59,-0.185,-0.15,3.77,82.14,787.5,3087.4,46.8,83.7,0,0,0
1772359371.0,538.54,25579.4,0.28,-4.55,248.71,0.179,-0.367,-1.508,82.16,685.7,3731.3,61.6,86.4,0,0,0
1772359372.0,409.11,34069.6,3.74,22.48,232.91,0.96,-0.29,-1.063,81.88,649.2,4538.5,59.0,83.0,0,0,0
1772359373.0,562.7,32599.6,0.3,-24.12,258.18,0.231,-0.047,2.687,86.36,749.5,3526.7,59.8,82.9,0,0,0
1772359374.0,509.46,25337.0,-6.85,-25.41,189.16,0.041,1.038,0.125,93.93,629.1,4667.4,70.7,93.8,0,0,0
1772359375.0,425.22,35828.6,-5.06,-24.47,78.54,-0.999,0.615,3.786,84.61,639.9,3474.7,60.2,81.8,0,0,0
1772359376.0,499.2,38955.7,4.79,-14.64,143.25,0.523,0.382,-0.704,88.16,664.5,4545.2,68.2,76.6,0,0,0
1772359377.0,600.11,27514.0,5.34,-3.95,138.56,-1.356,-0.538,1.019,94.84,803.1,4185.2,62.0,77.1,0,0,0
1772359378.0,416.09,25593.3,1.01,24.28,256.21,-0.217,-1.841,0.765,83.83,548.5,4024.9,55.5,78.3,0,0,0
1772359379.0,617.73,25954.5,0.98,20.36,289.39,1.373,0.486,-0.041,88.04,729.4,3498.3,54.3,108.7,0,0,0
1772359380.0,469.45,32965.9,-5.15,33.34,320.37,0.259,-0.657,3.037,91.53,764.0,3073.6,60.3,101.3,0,0,0
1772359381.0,586.49,19067.1,3.55,13.7,250.74,-0.256,-1.844,0.493,85.55,626.8,2607.8,60.5,108.2,0,0,0
1772359382.0,475.95,23955.9,0.23,1.42,50.13,-0.296,0.377,0.475,83.54,705.7,4271.5,62.8,94.8,0,0,0
1772359383.0,454.45,23037.8,-3.97,21.84,160.41,0.426,0.495,2.074,76.09,678.9,3145.0,67.4,92.9,0,0,0
1772359384.0,468.76,20546.9,3.83,9.44,154.08,1.342,0.244,0.146,78.58,675.0,2199.4,53.3,73.9,0,0,0
1772359385.0,498.75,27255.8,-4.12,-38.72,55.38,-0.262,-1.338,1.371,85.8,717.0,3779.5,57.3,124.0,0,0,0
1772359386.0,427.19,26622.5,-4.62,32.95,170.39,-1.046,0.372,-0.168,66.69,669.3,3719.2,71.4,90.5,0,0,0
1772359387.0,477.45,23766.0,-5.71,17.95,293.36,-0.18,0.832,2.166,87.46,599.3,4214.9,54.2,86.5,0,0,0
1772359388.0,338.64,32054.4,0.0,18.74,204.66,-0.468,-0.672,-0.625,86.84,673.8,3213.6,44.3,108.6,0,0,0
1772359389.0,415.43,24976.0,4.11,3.27,344.02,1.387,0.841,0.575,80.86,700.6,4020.3,61.9,80.9,0,0,0
1772359390.0,645.01,26182.9,4.57,-5.35,319.69,-0.568,0.565,-0.139,84.88,586.8,4243.6,69.2,84.5,0,0,0
1772359391.0,417.57,17458.9,-3.2,39.97,356.53,0.546,0.417,0.139,74.82,670.1,4047.8,70.0,89.5,0,0,0
1772359392.0,588.18,21778.5,-7.04,-19.95,205.29,-0.908,-0.055,0.975,87.39,617.0,3384.0,53.8,111.4,0,0,0
1772359393.0,668.39,21382.1,-2.25,-3.24,233.76,-0.486,0.483,-1.047,84.34,696.5,4107.0,47.4,133.3,0,0,0
1772359394.0,476.41,29603.9,0.98,29.28,139.47,-0.117,-0.012,0.86,92.6,583.4,3449.5,56.2,87.0,0,0,0
1772359395.0,487.82,27700.3,0.68,-37.47,120.51,1.272,0.729,1.477,92.9,656.1,3477.5,64.5,93.8,0,0,0
1772359396.0,295.56,40457.9,2.25,-17.54,34.78,0.463,1.808,4.343,96.63,637.8,4458.7,73.4,85.7,0,0,0
1772359397.0,475.62,31684.2,2.44,-20.06,2.32,0.037,0.707,0.743,86.5,694.2,3813.6,73.6,81.0,0,0,0
1772359398.0,446.67,22774.4,2.21,18.26,141.71,0.633,-0.324,1.264,100.38,723.6,4184.3,60.5,73.8,0,0,0
1772359399.0,587.62,19786.6,-3.02,14.45,56.81,-0.625,0.35,1.069,88.13,728.7,4674.0,73.8,80.4,0,0,0
1772359400.0,545.95,7921.9,-0.27,-36.47,17.4,0.93,-0.158,1.643,87.25,749.6,4215.7,57.6,97.3,0,0,0
1772359401.0,421.99,26898.1,1.28,-21.82,335.41,0.265,0.752,-0.117,74.21,669.9,4244.3,56.4,78.4,0,0,0
1772359402.0,287.67,28690.2,1.17,-46.03,77.32,2.047,0.147,-0.724,86.73,780.3,4248.8,52.1,101.3,0,0,0
1772359403.0,419.77,26665.0,-3.38,-1.21,195.96,0.412,0.19,-0.036,87.98,677.5,4673.5,53.9,87.0,0,0,0
1772359404.0,412.29,31384.3,-0.71,-56.24,119.24,-1.098,0.776,0.359,80.44,701.1,4905.0,62.4,96.4,0,0,0
1772359405.0,566.02,31745.2,-4.77,11.47,352.58,-0.635,0.009,0.174,71.71,754.7,3146.9,72.3,63.2,0,0,0
1772359406.0,428.79,37033.4,0.4,-39.04,346.32,0.02,0.2,2.784,74.49,729.2,3849.2,48.0,82.7,0,0,0
1772359407.0,601.14,30110.4,-1.96,50.2,239.02,0.049,0.421,1.445,75.94,710.5,2793.4,64.6,77.8,0,0,0
1772359408.0,572.88,32619.0,0.8,-9.19,82.33,0.621,1.388,0.671,90.78,731.7,4114.2,73.3,77.9,0,0,0
1772359409.0,495.9,24933.3,-0.07,64.33,339.02,-0.935,0.799,-1.118,80.8,676.0,3350.9,57.7,70.5,0,0,0
1772359410.0,419.5,14049.5,14.55,13.27,97.92,-0.065,0.015,3.373,82.73,576.0,4335.1,62.3,83.2,0,0,0
1772359411.0,530.6,26589.6,-5.87,-41.46,262.45,-0.217,0.475,-0.296,84.08,652.1,2940.0,67.3,73.6,0,0,0
1772359412.0,441.0,11232.6,-2.09,19.65,131.75,1.263,-0.187,1.716,86.34,760.3,3905.0,62.3,100.5,0,0,0
1772359413.0,702.44,24609.6,4.0,11.13,266.44,-0.456,1.542,0.114,81.38,630.1,3811.6,62.4,119.2,0,0,0
1772359414.0,695.28,27333.2,5.91,-23.07,288.99,-0.156,1.259,1.413,90.38,701.5,3078.6,51.5,83.3,0,0,0
1772359415.0,497.54,16774.5,3.57,38.93,178.31,0.805,1.102,1.774,87.13,666.1,4193.0,68.2,83.1,0,0,0
1772359416.0,640.47,26845.8,-8.3,12.18,158.25,0.633,-0.494,0.731,76.08,666.7,5246.3,65.5,82.4,0,0,0
1772359417.0,461.43,29686.0,1.06,30.56,211.83,1.419,-0.032,0.567,84.55,660.6,3480.3,59.8,77.5,0,0,0
1772359418.0,503.3,15011.7,2.58,-23.55,174.83,0.842,-0.367,1.313,72.1,673.6,3149.0,64.8,104.9,0,0,0
1772359419.0,575.3,14767.7,-5.31,-12.58,207.88,-1.108,-0.068,3.292,94.92,714.1,4470.8,70.4,86.8,0,0,0
1772359420.0,463.48,27443.7,4.65,-5.92,188.27,-2.11,-0.299,1.788,87.85,709.4,3809.4,58.3,94.5,0,0,0
1772359421.0,434.07,20036.5,10.62,18.38,212.65,1.076,0.09,-0.465,81.97,671.0,4709.6,58.1,80.8,0,0,0
1772359422.0,544.33,31957.3,-6.05,19.57,198.63,-0.726,1.129,0.781,81.34,736.4,4758.5,46.8,112.0,0,0,0
1772359423.0,458.1,22133.2,-4.0,9.72,12.67,-0.8,1.203,0.863,88.52,716.9,3834.1,56.3,87.0,0,0,0
1772359424.0,533.38,22618.6,0.07,-31.93,157.37,1.208,0.766,2.403,81.79,727.4,4667.2,60.9,104.8,0,0,0
1772359425.0,462.05,15032.3,-0.89,-18.41,178.75,0.313,0.154,2.233,85.27,625.3,4056.5,58.4,71.0,1,0,0
1772359426.0,452.73,26573.4,7.71,-16.4,40.05,0.266,1.555,1.931,88.58,806.8,2703.5,64.8,101.8,0,0,0
1772359427.0,546.13,27785.5,-10.37,-25.36,116.2,0.426,2.592,1.703,85.83,739.8,3204.8,61.0,81.4,0,0,0
1772359428.0,347.7,24309.1,0.34,-22.91,52.01,-0.372,1.681,-1.004,77.88,697.1,4800.3,48.9,92.8,0,0,0
1772359429.0,631.79,28999.9,10.48,48.18,33.17,0.419,-0.89,4.057,88.27,707.9,3598.7,57.3,113.1,0,0,0
1772359430.0,581.12,19380.7,-2.2,12.31,337.46,0.259,-0.682,1.136,89.25,739.4,4053.9,51.0,99.5,0,0,0
1772359431.0,386.14,21131.7,1.98,26.46,83.79,0.308,0.197,-0.599,83.42,696.0,3398.5,54.8,101.1,0,0,0
1772359432.0,530.66,15550.2,9.57,49.47,96.44,-0.889,1.818,0.861,75.95,602.5,4661.2,77.2,95.3,0,0,0
1772359433.0,454.11,42240.5,-1.23,-12.47,76.15,0.586,-0.137,1.423,83.71,757.8,4791.3,66.4,124.5,0,0,0
1772359434.0,314.68,20279.5,0.95,2.45,113.05,1.255,-0.048,1.58,89.63,716.6,3424.7,59.5,82.4,0,0,0
1772359435.0,471.14,28204.7,0.1,-17.63,66.75,-1.236,0.044,0.248,83.87,657.4,4340.2,68.2,72.0,0,0,0
1772359436.0,437.61,27328.3,-5.19,-15.19,118.47,-0.695,1.427,0.969,81.04,660.1,3788.7,56.0,93.8,0,0,0
1772359437.0,412.79,23031.6,0.85,18.04,188.91,1.257,0.065,-1.146,86.38,779.3,4854.4,67.8,108.3,0,0,0
1772359438.0,597.39,24050.9,-1.2,40.06,218.68,0.153,0.831,-0.177,74.61,676.8,4603.0,59.1,97.0,0,0,0
1772359439.0,521.25,27974.8,-0.7,26.99,223.79,1.193,0.564,0.193,80.89,732.9,3441.4,52.2,82.6,0,0,0
1772359440.0,506.29,22917.5,-1.41,-14.93,14.29,0.003,0.702,1.091,94.11,666.2,3997.4,64.4,83.7,0,0,0
1772359441.0,270.74,35760.4,-1.03,8.13,162.79,-1.218,0.26,1.555,75.34,704.1,4329.0,80.1,91.8,0,0,0
1772359442.0,643.15,26901.9,-2.86,53.74,83.9,-1.254,0.385,-0.737,85.37,810.9,4466.5,57.1,98.1,0,0,0
1772359443.0,544.83,21494.3,-2.08,-7.27,0.49,-1.358,0.287,2.291,99.33,753.6,4066.3,55.1,96.1,0,0,0
1772359444.0,454.15,25912.2,1.52,-7.52,106.7,0.688,-0.615,1.231,89.12,715.3,4782.0,48.6,66.8,0,0,0
1772359445.0,296.09,10642.8,11.7,-8.51,339.22,-0.209,-0.179,0.77,82.69,682.3,2648.8,69.6,76.4,0,0,1
1772359446.0,442.85,14537.6,7.27,-3.04,42.38,0.233,0.101,1.417,81.27,796.8,4354.3,52.3,91.8,0,0,0
1772359447.0,477.59,23546.7,-2.07,10.07,280.47,0.271,0.584,0.554,81.38,682.4,3713.3,60.1,90.8,0,0,0
1772359448.0,454.03,29216.5,-7.45,-16.36,224.73,0.866,-1.454,-0.747,81.31,707.3,3809.1,45.6,103.8,0,0,0
1772359449.0,533.98,23305.2,-4.38,10.39,179.56,-0.736,-0.21,1.191,87.63,622.4,4143.7,62.4,93.9,0,0,0
1772359450.0,386.78,25987.0,4.46,-10.34,51.69,-1.51,-1.303,3.093,82.1,740.1,4501.9,60.9,66.4,0,0,0
1772359451.0,550.83,14170.0,3.87,-1.71,138.58,0.079,1.214,-2.385,94.53,753.3,3516.2,54.4,107.3,0,0,0
1772359452.0,440.13,25097.2,1.08,42.45,153.76,-0.03,0.056,3.378,84.35,619.3,3352.0,54.4,90.0,0,0,0
1772359453.0,551.29,17589.8,0.26,39.17,102.49,0.371,-1.232,0.876,96.2,620.0,4176.7,61.2,94.8,0,0,0
1772359454.0,529.22,20560.1,-2.9,16.25,119.72,-0.58,-0.215,1.922,82.55,611.2,3848.2,57.8,63.7,0,0,0
1772359455.0,548.27,27612.4,-0.96,-24.13,156.79,0.787,-1.05,1.982,77.36,637.9,3790.8,60.3,91.9,0,0,0
1772359456.0,447.36,25139.5,-8.93,-17.51,139.64,-0.492,-0.38,0.895,83.44,685.9,4024.8,53.9,89.6,0,0,0
1772359457.0,583.84,39937.2,-9.47,-28.31,167.79,0.904,-0.309,1.142,82.94,799.0,4189.0,64.0,57.5,0,0,0
1772359458.0,524.27,28574.5,2.99,-21.2,265.18,-0.207,1.199,-0.796,76.49,644.1,4593.9,58.3,66.9,0,0,0
1772359459.0,529.69,22906.5,-3.13,23.93,121.12,-0.71,0.147,0.859,80.58,781.5,2922.1,60.5,97.3,0,0,0
1772359460.0,545.99,27051.1,-10.29,-19.7,20.93,0.046,-0.046,0.258,87.55,674.4,4141.0,60.7,97.2,0,0,0
1772359461.0,480.12,37501.2,-2.09,-6.56,252.66,-0.584,-0.527,2.41,84.41,709.9,3577.2,63.2,90.0,0,0,0
1772359462.0,396.66,17755.2,4.36,27.95,275.13,0.303,0.972,1.959,89.53,737.2,4459.6,60.6,81.7,0,0,0
1772359463.0,474.52,31674.6,-4.12,41.65,98.27,-0.244,-0.329,-0.905,73.82,711.8,4260.1,61.1,96.9,0,0,0
1772359464.0,347.87,34372.1,4.71,-25.16,315.13,0.389,0.732,2.622,83.54,745.7,4264.3,58.2,90.3,0,0,0
1772359465.0,671.85,17898.3,-2.81,-9.94,221.34,0.731,0.587,0.956,87.93,745.3,3096.3,59.6,68.5,0,0,0
1772359466.0,503.43,17615.2,6.67,23.64,130.07,-1.15,0.013,2.581,87.43,727.1,4743.4,51.7,77.3,0,0,0
1772359467.0,505.15,26671.1,-8.45,12.91,70.23,0.705,-1.246,-0.888,94.12,609.6,3685.8,57.1,87.8,0,0,0
1772359468.0,356.86,30428.2,6.55,-4.58,194.69,0.175,-0.474,0.097,90.76,731.4,3936.8,67.3,94.2,0,0,0
1772359469.0,592.99,21990.3,8.75,-20.53,162.58,1.044,-0.292,-0.337,88.78,692.7,3091.8,66.9,90.8,0,0,0
1772359470.0,434.57,27897.1,7.6,30.91,328.78,0.921,-0.598,1.888,89.57,714.7,4531.3,60.9,102.6,0,0,0
1772359471.0,501.43,25210.9,7.94,-18.88,76.9,0.032,0.209,1.348,75.53,658.7,3445.6,61.4,107.0,0,0,0
1772359472.0,542.12,34008.5,0.97,41.64,285.93,-0.666,0.781,0.327,85.32,634.9,4419.2,64.4,79.4,0,0,0
1772359473.0,706.03,22326.2,0.15,24.62,21.99,0.055,-0.286,0.998,75.67,744.3,4492.5,46.8,85.8,0,0,0
1772359474.0,488.49,25665.5,-4.77,3.95,240.7,0.771,0.69,1.598,75.18,722.4,2501.2,60.9,72.0,0,0,0
1772359475.0,473.02,7631.3,-0.11,-16.34,301.3,1.247,-0.242,2.878,73.98,562.9,4023.4,48.1,103.1,0,0,0
1772359476.0,345.79,20902.2,8.36,-29.3,290.53,1.075,0.023,1.522,86.77,828.4,3782.5,46.2,94.6,1,0,0
1772359477.0,443.5,13428.4,0.8,12.99,145.42,-0.34,-1.359,0.808,75.58,695.5,3560.8,63.8,96.1,0,0,0
1772359478.0,543.09,37543.1,-3.4,-47.82,13.0,-0.018,-1.099,-0.682,81.42,693.9,4268.2,63.2,80.2,0,0,0
1772359479.0,532.09,29046.6,-0.86,-28.06,271.25,-1.946,0.682,0.893,86.23,751.7,3710.4,67.1,73.7,0,0,0
1772359480.0,478.69,26708.0,6.59,17.47,219.43,0.406,0.112,0.504,92.04,720.1,4703.2,60.8,131.1,0,0,0
1772359481.0,585.57,20948.7,-0.15,-7.12,42.85,-0.338,0.464,-0.392,81.24,680.3,3792.9,56.0,98.3,0,0,0
1772359482.0,567.27,27689.5,5.02,-29.91,235.81,1.556,-1.185,2.863,92.42,616.9,3247.7,66.9,84.9,0,0,0
1772359483.0,548.03,39252.1,5.34,-19.15,64.06,0.14,-1.689,-1.203,85.2,719.4,4355.9,59.9,85.0,0,0,0
1772359484.0,414.73,19422.0,0.99,16.64,156.6,-0.127,-0.432,1.937,77.97,728.4,3718.3,42.6,95.5,0,0,0
1772359485.0,535.5,28930.0,0.93,-30.6,164.39,-1.454,-0.572,0.009,88.99,791.5,3877.9,66.8,62.5,0,0,0
1772359486.0,553.61,18739.0,-8.05,-4.76,307.56,1.009,0.014,-1.385,82.46,685.1,4614.3,66.7,98.8,0,0,0
1772359487.0,464.86,19852.7,-2.1,-3.04,229.25,-0.933,-0.267,-0.901,93.54,856.6,3860.1,62.8,95.6,0,0,0
1772359488.0,568.05,19628.1,-4.88,-25.25,148.28,0.677,0.021,0.421,82.43,687.5,3114.5,38.8,82.0,0,0,0
1772359489.0,346.78,16937.0,-0.04,5.84,120.37,-0.526,-0.004,3.256,85.82,747.0,2660.8,53.6,105.6,0,0,0
1772359490.0,376.85,27824.3,7.66,-0.83,243.14,0.649,-0.336,-1.757,86.7,647.8,3670.6,61.7,98.5,0,0,0
1772359491.0,314.25,25433.0,-2.77,-50.94,170.65,1.481,-1.229,-0.614,80.15,692.9,4427.8,58.3,95.5,0,0,0
1772359492.0,469.95,10820.8,9.04,-15.13,199.92,0.808,-0.835,0.816,82.87,703.3,3882.0,73.4,105.2,0,0,0
1772359493.0,600.53,20189.7,-8.24,-26.62,214.46,0.077,0.865,-0.997,88.36,721.3,4325.8,74.7,91.8,0,0,0
1772359494.0,513.06,7880.0,-0.64,16.58,146.11,0.128,-0.918,0.832,73.74,712.9,4018.7,61.3,56.1,0,0,0
1772359495.0,584.31,31792.6,0.24,-10.69,154.48,0.101,-0.546,1.049,82.31,770.1,4528.2,54.6,97.1,0,0,0
1772359496.0,510.21,18683.0,-1.15,11.99,204.19,0.102,-0.09,0.319,78.31,676.2,4488.2,59.3,72.8,0,0,0
1772359497.0,513.52,23956.4,1.84,-19.75,8.89,-0.976,1.067,0.879,81.38,734.1,4073.8,64.1,88.7,0,0,0
1772359498.0,514.46,24714.8,2.16,34.14,27.28,-1.13,-0.227,1.979,77.53,680.4,4868.9,49.4,78.7,0,0,0
1772359499.0,485.05,33574.3,-0.96,13.99,243.22,-0.41,-0.041,1.572,79.69,667.6,4344.1,65.0,83.6,0,0,0
1772359500.0,378.35,20121.8,0.28,-0.91,167.99,-0.795,1.308,2.231,98.86,709.5,3615.1,64.4,81.7,0,0,0
1772359501.0,432.03,21716.9,-6.12,32.1,79.23,0.516,1.541,0.442,88.56,769.0,3977.7,68.9,85.1,0,0,0
1772359502.0,615.74,22945.3,7.68,2.72,138.37,-1.124,1.647,0.708,97.09,627.8,4214.0,67.4,91.3,0,0,0
1772359503.0,524.76,24647.1,9.08,48.86,128.93,0.488,-0.607,1.098,78.74,716.1,4756.3,66.2,82.2,0,0,0
1772359504.0,580.71,28205.6,1.69,-4.87,110.12,-0.626,-0.268,0.371,93.27,733.6,5182.6,71.9,105.3,0,0,0
1772359505.0,471.41,15402.0,-1.24,-42.7,242.62,1.106,-0.035,0.922,82.27,830.5,3906.1,55.4,85.4,0,0,0
1772359506.0,476.36,39022.2,0.59,-9.78,307.05,0.417,0.378,3.355,84.13,664.5,4277.0,45.5,84.4,0,0,0
1772359507.0,411.79,11233.8,6.18,38.53,18.25,0.858,1.476,0.368,77.12,719.6,3530.5,57.1,111.3,0,0,0
1772359508.0,437.3,20986.7,3.56,-33.93,152.01,1.181,0.491,2.427,88.48,659.0,3821.5,51.6,77.9,0,0,0
1772359509.0,531.97,17987.2,7.43,-26.38,97.92,0.001,0.101,0.505,79.04,726.5,3824.3,53.5,119.6,0,0,0
1772359510.0,502.36,35162.2,5.97,4.65,357.29,-0.491,0.138,2.925,80.78,663.9,4623.5,69.2,73.3,0,0,0
1772359511.0,559.67,17271.7,-9.84,-19.26,14.84,-0.103,-0.409,2.192,80.78,685.9,2421.8,65.8,106.9,0,1,0
1772359512.0,598.53,29349.4,8.86,-16.33,340.9,1.011,-0.495,2.144,81.29,744.3,3091.6,53.7,100.8,0,0,0
1772359513.0,541.88,23538.7,0.28,14.11,15.32,0.814,0.187,1.052,83.55,688.0,3226.6,63.7,86.1,0,0,0
1772359514.0,319.11,21769.3,3.97,2.35,183.52,1.728,0.139,1.299,79.44,690.7,3067.4,69.1,79.2,0,0,0
1772359515.0,471.21,28596.1,3.28,-42.22,145.85,0.415,-1.571,0.813,101.29,721.5,3430.3,60.2,76.7,0,0,0
1772359516.0,506.02,20154.5,-1.25,9.83,153.08,0.761,-0.666,0.049,78.16,726.7,3947.3,65.4,95.1,0,0,0
1772359517.0,591.75,37575.6,5.13,1.89,191.13,-0.206,-0.223,1.009,90.69,772.4,5576.9,53.0,87.2,0,0,0
1772359518.0,396.99,26177.2,3.13,8.81,10.3,0.731,-0.212,2.068,78.2,723.1,3939.9,66.5,98.7,0,0,0
1772359519.0,490.24,28280.6,5.43,13.55,357.71,-1.799,0.806,1.686,76.48,620.9,4159.7,52.0,81.3,0,0,0
1772359520.0,588.38,26264.0,-2.22,14.18,192.88,0.117,-0.02,-0.788,80.94,715.5,3517.4,43.2,91.1,0,0,0
1772359521.0,551.66,17423.4,2.59,-1.24,351.88,0.432,1.066,1.176,95.79,696.1,4232.5,53.0,91.8,0,0,0
1772359522.0,377.54,29843.5,3.69,-14.69,102.4,0.574,-0.233,0.696,86.24,721.7,4026.4,65.1,89.0,0,0,0
1772359523.0,415.78,23114.4,-0.76,-0.0,297.52,-0.291,0.252,1.004,86.01,704.8,3397.7,70.0,115.0,0,0,0
1772359524.0,520.18,21085.7,1.56,42.79,32.89,-0.751,0.449,0.52,86.81,689.9,3497.2,45.3,96.1,0,0,0
1772359525.0,401.36,32727.5,1.33,7.64,40.54,0.359,-0.425,1.732,88.13,707.8,3795.4,60.7,78.1,0,0,0
1772359526.0,240.72,23122.8,3.12,18.39,126.07,-1.817,-1.204,1.559,80.62,684.6,3453.9,61.0,61.1,0,0,0
1772359527.0,456.87,26335.5,-2.91,-4.02,169.09,-0.313,0.353,0.514,71.44,607.5,2639.1,64.2,78.8,0,0,0
1772359528.0,473.47,22622.5,-0.99,-44.01,293.22,0.463,0.495,-1.27,87.58,785.0,3221.0,63.3,86.6,0,0,0
1772359529.0,504.25,19682.9,0.94,31.58,24.05,0.735,-1.173,-0.62,94.74,701.9,3430.0,75.9,113.3,0,0,0
1772359530.0,536.97,20648.8,-4.22,18.4,354.7,0.897,1.026,2.549,85.22,701.7,4290.6,56.9,102.7,0,0,0
1772359531.0,517.56,31475.5,0.51,14.94,159.89,-0.24,0.607,1.327,93.2,648.0,3715.9,55.2,99.1,0,0,0
1772359532.0,436.51,29353.8,7.84,10.86,282.24,1.747,0.616,0.359,82.31,789.1,4193.8,48.8,88.8,0,0,0
1772359533.0,724.38,28968.3,4.62,-14.79,166.03,-0.661,0.075,3.294,79.85,658.5,4708.0,56.0,75.6,0,0,0
1772359534.0,513.48,18917.8,0.27,-19.35,225.18,2.199,0.333,2.439,92.46,757.5,4250.2,61.6,92.8,0,0,0
1772359535.0,493.87,35368.7,-0.64,-2.06,131.63,1.249,-1.121,-0.01,94.39,705.1,4740.7,60.4,81.7,0,0,0
1772359536.0,497.19,23831.1,-1.3,-27.48,26.66,-0.071,0.273,1.221,92.42,634.9,4343.4,60.4,92.2,0,0,0
1772359537.0,451.47,26321.9,5.4,34.11,236.1,2.06,0.7,2.827,88.01,583.7,4609.3,62.1,94.9,0,0,0
1772359538.0,532.03,35501.9,-12.04,3.09,11.02,2.643,0.285,-0.707,101.34,611.1,4016.6,61.0,95.6,1,0,0
1772359539.0,487.34,9195.0,5.06,55.08,295.48,0.402,-0.623,3.895,88.17,835.9,4020.5,59.7,95.6,0,0,0
1772359540.0,496.31,30059.5,4.01,1.72,197.46,-0.959,-0.236,3.039,83.19,814.6,4762.6,71.5,93.1,0,0,0
1772359541.0,633.95,18217.4,-5.75,29.44,194.86,-0.053,-0.391,0.061,86.81,703.1,4577.8,57.2,91.6,0,0,0
1772359542.0,570.98,31768.9,1.5,15.89,348.16,0.031,1.343,1.127,85.57,736.2,4409.4,77.7,77.9,0,0,0
1772359543.0,436.82,29457.2,-3.03,9.19,315.73,-0.445,0.006,-2.519,89.53,711.6,3486.5,67.7,86.2,0,0,0
1772359544.0,607.6,46819.0,-8.84,56.93,207.48,1.29,-0.682,0.951,86.79,746.6,4075.5,51.0,90.6,0,0,0
1772359545.0,553.78,20424.2,0.56,43.0,242.08,-0.099,0.215,1.147,93.94,648.2,4497.2,70.9,112.3,0,0,0
1772359546.0,434.61,35991.3,-2.61,10.67,183.26,-0.379,-0.019,-0.729,91.05,711.4,3702.0,55.0,107.3,0,0,0
1772359547.0,516.48,31649.5,2.75,43.82,229.98,2.197,1.214,3.044,88.52,694.5,5384.6,56.2,74.0,1,0,0
1772359548.0,423.08,21189.6,11.43,16.05,290.0,-0.998,0.02,0.589,79.8,669.5,3696.6,61.0,85.1,0,0,0
1772359549.0,424.79,31523.2,2.54,14.54,36.44,1.297,1.796,2.254,93.23,769.4,3959.6,74.2,100.7,0,0,0
1772359550.0,435.95,27067.0,9.32,48.4,125.2,0.828,-1.32,1.882,87.11,827.3,4586.9,50.6,90.9,0,0,0
1772359551.0,435.62,25814.8,-3.06,1.38,107.35,-0.56,-0.091,-0.221,94.96,645.1,3181.0,63.8,75.2,0,0,0
1772359552.0,541.65,25645.5,2.97,-4.42,16.22,0.388,0.448,0.105,97.81,725.7,3359.4,61.3,97.6,0,0,0
1772359553.0,345.17,18627.2,-6.97,-5.82,37.32,0.406,0.317,2.194,91.33,600.0,4291.8,49.7,95.5,0,0,0
1772359554.0,429.06,28950.8,5.67,21.56,244.08,0.65,-0.311,0.848,75.95,734.0,4135.2,73.6,93.9,0,0,0
1772359555.0,564.72,24040.3,5.33,-43.7,64.05,1.342,-1.89,1.579,90.17,561.4,3120.7,63.4,84.6,0,0,0
1772359556.0,406.31,33490.4,3.96,-40.39,264.78,0.944,-0.534,0.971,86.09,747.1,4750.6,60.7,96.7,0,0,0
1772359557.0,556.09,22899.0,1.22,47.51,14.89,0.123,0.554,0.71,74.87,673.0,3791.0,55.1,74.9,0,0,0
1772359558.0,498.26,27517.9,11.13,-10.85,351.76,0.703,-1.635,1.006,86.95,734.6,3717.1,65.9,88.0,0,0,0
1772359559.0,420.55,20996.4,2.3,-19.41,276.79,0.874,0.118,2.381,88.02,768.3,4442.9,58.8,94.6,0,0,0
1772359560.0,594.16,25465.2,-8.54,39.65,116.27,-0.091,-1.194,-2.492,80.56,692.4,3755.9,58.0,102.0,0,0,0
1772359561.0,431.05,31799.7,-0.71,9.68,81.48,0.765,-0.399,-0.09,86.25,681.4,3126.8,73.7,72.8,0,0,0
1772359562.0,372.85,20366.7,5.73,2.22,19.63,-1.451,0.454,2.015,89.8,710.0,3851.5,53.3,73.6,0,0,0
1772359563.0,566.39,31254.5,-4.72,-33.26,281.92,-1.239,1.19,2.117,92.09,660.8,3482.9,69.7,105.8,0,0,0
1772359564.0,437.6,27620.1,-2.3,-16.08,25.31,0.028,0.659,2.931,85.37,709.6,4086.3,54.4,74.6,0,0,0
1772359565.0,472.89,23224.4,-1.63,-41.23,271.77,-0.646,-1.658,0.738,91.46,728.1,4671.0,56.9,75.8,0,0,0
1772359566.0,505.78,22842.4,2.74,-22.87,9.97,0.658,-0.688,2.235,86.85,586.2,3394.2,57.6,95.7,0,0,0
1772359567.0,405.61,40035.2,-4.65,-15.54,17.58,1.316,-0.2,1.851,82.4,728.8,4251.1,55.0,85.6,0,0,0
1772359568.0,573.1,27222.9,-0.9,30.81,240.5,2.368,0.121,0.651,76.61,705.3,3396.8,55.3,74.0,0,0,0
1772359569.0,491.67,11555.9,-2.87,-2.85,78.67,-0.841,-0.169,1.135,77.69,679.6,4159.3,53.4,104.1,0,0,1
1772359570.0,408.06,30461.1,1.33,27.38,120.51,-0.36,-0.733,1.655,79.32,745.1,5049.7,60.2,87.5,0,0,0
1772359571.0,544.05,36191.7,3.17,-0.82,53.45,-0.844,0.26,2.357,84.07,729.4,4200.7,55.8,81.2,0,0,0
1772359572.0,646.3,22561.1,8.31,-19.57,129.61,0.177,1.333,0.45,92.81,776.9,4517.4,55.7,89.7,0,0,0
1772359573.0,441.22,25843.8,1.83,16.74,351.99,-0.322,0.273,0.565,87.09,668.7,3412.4,71.5,116.4,0,0,0
1772359574.0,433.52,28664.9,-1.67,7.56,212.41,1.984,0.685,2.355,81.52,715.2,4126.5,45.7,117.5,0,0,0
1772359575.0,402.34,20256.6,0.3,0.41,61.58,-0.445,0.409,1.401,88.58,769.2,3529.8,59.6,80.1,0,0,0
1772359576.0,353.93,17401.4,-4.53,16.31,103.32,-0.059,0.438,4.185,86.6,589.4,4178.8,45.6,98.3,0,0,0
1772359577.0,577.26,32488.2,-0.63,-15.35,89.22,1.397,-0.875,-0.241,90.93,691.3,4866.6,62.6,79.7,0,0,0
1772359578.0,402.99,31298.5,-4.07,38.79,145.25,0.061,1.58,2.116,71.9,658.2,3352.3,68.1,89.3,0,0,0
1772359579.0,547.61,35791.2,6.35,-11.95,129.95,-0.424,0.868,1.929,71.44,595.1,3596.9,52.4,83.9,0,0,0
1772359580.0,496.29,19408.2,1.09,-21.28,222.27,0.122,0.138,0.71,91.91,774.2,4239.5,67.8,114.3,0,0,0
1772359581.0,453.89,35813.3,-1.63,-50.92,183.11,-0.029,1.519,1.631,82.72,690.7,3524.9,52.6,89.0,1,0,0
1772359582.0,365.54,27043.4,0.75,10.28,46.14,-0.741,-0.872,0.337,97.43,790.5,4788.0,62.3,79.5,0,0,0
1772359583.0,354.59,35128.6,4.38,1.6,117.34,0.436,0.414,1.962,100.27,635.7,4100.8,52.3,104.7,0,0,0
1772359584.0,332.83,40660.7,7.36,16.24,171.76,-0.039,-1.027,0.311,91.31,706.3,4335.4,62.4,88.3,0,0,0
1772359585.0,591.07,32441.9,1.62,12.05,164.27,0.065,-0.427,1.594,77.75,724.4,3806.9,54.9,45.6,0,0,0
1772359586.0,425.19,25184.0,5.19,15.54,170.1,0.191,-0.764,0.266,76.67,655.9,4261.7,41.5,90.1,0,0,1
1772359587.0,565.36,26341.5,11.98,-28.83,8.7,-0.359,0.452,0.771,101.44,654.3,3642.6,48.2,95.6,0,0,0
1772359588.0,605.81,23243.5,-0.66,5.86,220.64,-0.983,1.419,0.911,87.55,625.6,4133.0,58.9,81.8,0,0,0
1772359589.0,504.35,34883.1,2.49,1.04,153.01,-1.0,-0.154,-0.178,78.21,742.7,3958.2,68.1,83.3,0,0,0
1772359590.0,589.8,15067.6,-1.36,-55.4,173.79,1.558,-1.498,-0.462,71.39,713.2,3992.1,49.1,93.0,0,0,0
1772359591.0,451.66,33270.3,-6.53,8.38,230.09,0.407,-1.16,-0.149,93.5,697.1,3682.7,45.3,101.5,0,0,0
1772359592.0,490.05,23841.8,-3.96,-34.49,233.01,-0.879,0.158,1.732,73.29,612.6,4592.1,62.4,99.5,0,0,0
1772359593.0,439.26,22960.7,2.77,-4.74,210.05,-0.905,-0.575,2.846,86.87,676.8,3499.7,66.1,89.6,0,0,0
1772359594.0,538.89,19502.5,-4.41,-25.25,63.98,-0.692,1.158,0.456,95.73,750.4,4524.9,47.1,80.5,0,0,0
1772359595.0,431.2,26448.8,3.44,-6.83,293.77,0.131,-0.041,1.791,82.4,703.4,5148.4,74.3,125.3,1,0,0
1772359596.0,552.33,15664.2,-0.13,45.3,284.28,-0.444,0.308,2.742,93.64,605.7,4170.8,62.7,82.1,0,0,0
1772359597.0,464.1,7995.9,-6.69,25.42,31.66,0.273,0.45,0.277,87.93,672.6,4027.7,68.1,89.0,0,0,0
1772359598.0,465.53,26302.4,3.38,-47.19,140.93,0.238,-1.039,0.304,92.24,717.3,3496.9,66.6,88.1,0,0,0
1772359599.0,582.55,34200.3,-9.57,-12.35,190.48,-1.031,-0.492,2.77,98.47,694.0,3342.6,59.1,66.8,0,0,0
1772359600.0,428.16,16783.2,-1.5,-7.82,188.55,-0.274,0.056,2.989,81.21,711.9,2932.3,67.3,112.4,0,0,0
1772359601.0,589.53,23000.2,1.58,-10.04,48.05,0.512,-0.422,2.265,77.38,624.6,3980.6,77.4,83.7,0,0,0
1772359602.0,537.86,26085.1,-5.34,-22.09,277.42,1.183,-0.957,-0.493,74.32,601.7,4314.6,57.5,90.9,0,0,0
1772359603.0,537.4,17275.0,9.89,7.5,124.8,0.93,0.22,1.749,79.65,802.8,3281.6,64.6,107.5,0,0,0
1772359604.0,304.36,28864.6,3.98,-12.13,241.94,1.275,-0.14,1.307,75.87,691.5,3909.0,63.7,86.5,0,0,0
1772359605.0,523.86,29845.8,4.34,-5.93,55.6,-0.485,0.819,1.685,93.93,685.1,3368.3,54.6,97.0,0,0,0
1772359606.0,412.8,31063.3,1.38,4.82,355.57,-0.784,0.254,2.928,74.16,641.6,3695.9,47.7,104.9,0,0,0
1772359607.0,450.56,24944.4,0.52,-2.49,65.36,0.016,1.062,1.839,100.22,679.5,3456.2,62.4,77.4,0,0,0
1772359608.0,495.36,23923.7,5.33,-17.89,119.44,-1.01,0.926,0.838,88.13,607.6,4353.4,65.0,110.0,0,0,0
1772359609.0,470.75,31180.6,4.92,-0.41,201.43,-1.351,0.17,2.226,80.79,781.7,4093.2,65.6,82.7,0,0,0
1772359610.0,483.84,26928.4,0.14,27.65,58.1,0.644,-0.613,0.503,89.46,754.6,3689.4,57.2,92.6,0,0,0
1772359611.0,411.04,19733.1,4.2,-44.04,358.49,0.274,-0.021,2.321,84.36,767.9,4694.1,62.6,99.6,0,0,0
1772359612.0,540.15,27648.0,6.49,-5.1,269.72,0.498,-0.056,0.961,80.68,638.6,3952.6,62.6,81.9,0,0,0
1772359613.0,538.34,14637.0,-4.31,-11.77,340.43,-0.385,-1.04,-1.816,88.39,819.3,4065.8,53.6,84.0,0,0,0
1772359614.0,522.58,15821.8,-2.79,35.75,83.54,-0.304,0.961,0.882,88.05,689.4,4191.5,61.7,92.3,0,0,1
1772359615.0,506.8,20869.1,-2.37,6.32,105.27,-0.873,-0.397,0.438,89.9,628.0,4354.6,63.6,99.5,0,0,0
1772359616.0,566.52,28539.9,8.31,-1.48,308.63,1.02,1.293,4.602,88.86,673.7,4604.5,55.6,91.5,0,0,0
1772359617.0,398.5,19442.5,1.74,-19.98,51.72,-0.499,-1.119,1.376,72.78,786.1,3711.0,52.2,90.4,0,0,0
1772359618.0,398.56,17941.2,6.15,-10.59,268.63,-0.187,-0.095,1.775,90.11,663.6,3601.2,62.2,104.5,0,0,0
1772359619.0,593.55,30085.6,0.49,11.22,44.12,0.961,0.827,2.367,95.4,717.9,4473.3,56.7,63.0,0,0,0
1772359620.0,502.63,21858.6,-1.76,-23.44,217.69,-0.52,-0.589,0.343,82.8,737.8,3635.4,68.0,81.2,0,0,0
1772359621.0,463.31,25397.7,-4.61,-12.45,282.24,1.071,-1.21,2.534,94.51,757.4,4144.3,58.3,78.1,0,0,0
1772359622.0,380.42,14958.7,7.03,13.23,129.51,-0.723,0.427,0.136,84.94,816.9,4197.9,49.8,76.3,0,0,0
1772359623.0,317.57,21962.9,12.35,-20.56,25.78,0.295,1.0,1.6,94.2,751.3,4089.7,69.1,78.8,0,0,0
1772359624.0,435.34,17903.6,5.68,51.42,341.58,1.307,0.927,1.416,79.4,716.9,4477.6,50.8,82.3,0,0,0
1772359625.0,503.53,29489.0,-3.09,-15.23,209.12,-0.034,0.242,-0.322,76.96,783.2,4090.2,53.0,75.0,0,0,0
1772359626.0,518.31,7925.1,-1.23,15.7,322.51,-1.56,-0.003,-1.182,92.08,644.0,4425.4,76.6,85.1,0,0,0
1772359627.0,410.64,23102.1,1.52,-17.82,212.92,0.303,0.703,2.773,84.9,747.4,3741.0,70.5,93.3,1,0,0
1772359628.0,526.03,13512.0,7.78,-21.39,226.75,0.389,0.714,1.265,88.42,574.0,3681.2,64.1,89.6,0,0,0
1772359629.0,450.97,13593.8,-1.25,-29.43,18.24,1.417,-0.844,1.325,92.07,646.1,4628.9,53.9,90.2,0,0,0
1772359630.0,435.69,29892.3,8.36,26.69,113.68,-0.825,-0.529,0.04,88.49,809.4,4623.0,63.4,114.3,0,0,0
1772359631.0,540.89,16482.2,0.18,54.35,259.8,0.784,-0.656,-0.447,96.31,768.3,4143.7,69.5,116.7,0,0,0
1772359632.0,409.79,15737.4,0.38,4.02,206.39,0.874,-2.158,-0.282,96.43,703.6,2558.8,64.5,109.2,0,0,1
1772359633.0,510.8,25311.6,8.07,-4.37,281.98,-0.05,0.131,-1.004,80.94,694.3,3966.8,56.4,82.3,0,0,0
1772359634.0,420.09,36975.9,6.32,-14.54,70.53,1.226,-0.677,-1.204,94.03,699.8,3113.6,61.0,103.1,0,0,0
1772359635.0,546.47,32622.3,0.6,0.92,321.84,-0.362,-0.675,0.043,87.04,619.0,3261.3,65.7,120.7,0,0,0
1772359636.0,349.06,32984.1,-3.55,-13.2,205.59,-0.02,0.474,1.412,79.92,731.6,3790.2,60.3,72.6,0,0,0
1772359637.0,515.26,26450.6,1.07,10.36,63.48,-1.575,0.479,1.061,99.05,762.6,4805.5,65.7,82.2,0,0,0
1772359638.0,381.97,20615.6,-2.51,-4.78,98.99,1.271,-0.502,1.649,106.08,605.7,3840.1,55.9,80.5,0,0,0
1772359639.0,441.14,23061.1,4.85,-17.28,279.15,-1.019,0.172,2.408,96.28,804.3,4376.6,55.8,108.2,0,0,0
1772359640.0,566.89,27593.8,8.26,-40.02,193.3,0.747,0.548,-0.537,76.68,686.4,3431.2,59.5,124.4,0,0,0
1772359641.0,572.04,32756.3,-3.95,-17.57,138.68,0.175,-0.377,1.02,88.83,711.7,3223.5,64.6,97.0,0,0,0
1772359642.0,398.5,12886.3,9.01,-28.8,228.4,-0.834,-2.137,1.057,84.93,727.4,3517.7,52.8,68.4,0,0,0
1772359643.0,558.58,28348.9,-3.52,1.08,350.11,0.107,-0.127,2.444,88.09,711.6,3057.4,39.8,97.9,0,0,1
1772359644.0,515.2,36765.2,-6.27,22.75,119.8,-0.21,0.456,1.264,91.68,628.2,5050.2,55.2,107.3,0,0,0
1772359645.0,442.77,23398.1,-2.59,45.17,175.94,-0.882,0.89,1.934,84.22,646.3,4457.5,53.2,95.9,0,0,0
1772359646.0,460.19,23077.6,2.12,-8.85,127.46,0.104,-0.611,1.533,85.08,724.2,4679.1,58.6,110.5,0,0,0
1772359647.0,503.04,10062.6,0.51,33.69,4.29,0.964,-0.316,0.932,81.52,617.5,3686.0,56.8,112.1,0,0,0
1772359648.0,360.74,24680.0,4.56,-0.26,252.32,0.667,0.012,3.975,83.01,644.4,3648.2,57.3,97.6,0,0,0
1772359649.0,537.43,27537.6,-3.81,-25.09,167.61,-0.116,-0.95,3.144,83.85,574.3,3522.4,64.7,73.6,0,0,0
1772359650.0,425.14,27453.5,-2.23,7.18,240.95,0.05,0.331,-2.286,86.65,846.2,4728.5,64.1,96.8,0,0,0
1772359651.0,565.38,20889.8,-6.4,-3.76,208.74,1.854,0.178,-1.778,85.83,670.8,4536.5,51.5,78.4,0,0,0
1772359652.0,394.49,11584.5,12.37,-35.58,250.38,-0.074,1.023,0.499,86.18,688.0,4041.9,50.8,79.4,0,0,0
1772359653.0,455.95,20875.3,-9.53,1.79,56.71,1.193,0.364,3.169,93.27,671.3,5444.3,72.2,97.8,0,0,0
1772359654.0,430.41,28135.2,-2.98,1.53,237.9,-0.733,-0.806,-0.861,83.07,615.5,4371.2,61.1,109.1,0,0,0
1772359655.0,476.12,30035.0,0.51,33.43,262.73,0.138,-0.405,-0.371,88.14,674.2,3851.5,64.3,94.0,0,0,0
1772359656.0,452.23,34987.2,0.89,-22.17,172.86,-0.658,0.904,-2.025,79.27,691.9,4438.6,65.6,91.3,0,0,0
1772359657.0,443.47,34260.0,10.99,27.27,156.01,0.251,-2.012,-0.417,71.94,740.5,3473.3,60.5,114.5,0,0,0
1772359658.0,460.63,22574.0,7.07,-6.25,357.9,-0.25,-0.203,-2.312,81.42,682.2,3830.6,59.1,97.4,0,0,0
1772359659.0,219.71,16837.7,2.26,32.84,226.89,0.215,0.417,1.393,93.19,640.5,4562.2,61.8,91.2,0,0,0
1772359660.0,501.98,21964.2,9.11,0.66,120.75,-0.013,-1.014,0.676,75.96,802.5,3412.4,53.8,89.0,0,0,0
1772359661.0,444.1,19784.3,-3.95,8.92,333.7,-0.753,0.147,0.628,84.97,566.8,3852.2,61.6,100.2,0,0,0
1772359662.0,265.8,28163.0,7.42,29.24,53.26,0.741,0.212,0.758,89.98,652.8,3637.7,58.7,97.6,0,0,0
1772359663.0,412.51,22249.1,-8.12,-21.28,137.52,0.232,0.021,-1.003,84.81,626.3,3923.7,57.2,73.8,0,0,0
1772359664.0,567.76,20512.7,3.45,0.42,188.2,0.218,-0.472,2.037,83.18,694.8,4675.3,55.4,90.7,0,1,0
1772359665.0,329.4,33925.2,0.7,-1.39,358.2,0.356,0.187,-0.313,87.26,703.4,3312.3,66.1,100.1,0,0,0
1772359666.0,516.82,18482.0,1.42,7.31,7.58,0.718,-0.366,2.607,78.17,742.9,3814.5,67.9,86.1,0,0,0
1772359667.0,588.64,16078.4,2.38,-46.69,92.76,-1.183,0.049,1.074,72.68,705.1,4428.1,70.9,100.0,0,0,0
1772359668.0,393.41,26214.2,12.19,7.37,191.24,0.427,-0.253,2.062,82.72,757.8,3983.3,53.0,71.9,0,0,0
1772359669.0,492.71,16701.4,5.03,2.09,261.7,-1.688,-0.459,-0.063,99.15,781.0,4723.6,62.3,100.8,0,0,0
1772359670.0,388.25,26003.0,7.73,-51.62,86.62,0.476,-1.89,4.695,89.03,693.7,3354.5,56.9,76.5,0,0,0
1772359671.0,490.13,20945.2,-0.61,-11.27,303.7,-1.829,0.864,2.297,83.85,698.3,3522.8,41.6,97.1,0,0,1
1772359672.0,475.2,33483.6,0.14,-10.45,323.78,0.995,-0.286,0.311,92.23,830.6,4236.5,52.5,97.0,0,0,0
1772359673.0,464.22,9342.1,1.78,37.62,239.9,1.741,-1.083,-0.329,81.89,703.6,2831.6,62.1,95.8,0,0,0
1772359674.0,339.87,21896.6,12.42,26.79,2.66,0.172,-0.288,-1.656,78.69,608.4,4270.4,62.2,97.8,0,0,0
1772359675.0,421.74,35844.8,-6.88,24.16,329.98,1.2,-0.959,1.544,79.6,662.4,4010.7,48.9,74.4,0,0,0
1772359676.0,447.81,22053.6,2.71,19.43,302.17,0.307,-0.843,1.575,82.84,669.5,4676.0,51.7,93.4,0,0,0
1772359677.0,477.79,13454.2,-4.97,-19.95,225.35,0.698,0.701,2.74,99.08,636.0,3963.6,44.4,83.4,0,0,0
1772359678.0,486.46,32064.5,3.7,1.92,104.27,-0.881,-1.063,-0.511,96.04,701.7,4284.1,60.2,83.7,0,0,0
1772359679.0,573.66,27477.7,4.93,8.69,246.44,0.978,0.075,0.335,94.72,688.3,3951.4,64.2,96.2,0,0,0
1772359680.0,272.02,34484.8,0.43,5.33,306.7,0.114,1.25,-0.269,86.69,734.8,3163.9,55.1,94.2,0,0,1
1772359681.0,380.68,27534.5,-2.77,5.01,165.43,0.1,1.292,0.391,97.95,643.4,3078.9,49.3,89.3,0,0,0
1772359682.0,401.16,38298.6,-0.67,23.22,191.06,0.765,0.61,0.377,77.43,663.8,4191.9,52.6,73.6,0,0,0
1772359683.0,447.37,22852.2,2.24,-43.76,358.68,0.847,-0.447,2.292,93.1,764.7,2062.3,46.3,84.1,0,0,0
1772359684.0,502.54,12079.7,0.75,-11.54,195.0,0.045,0.309,3.422,86.03,704.1,5411.3,58.4,70.2,0,0,0
1772359685.0,491.81,38985.1,-4.39,-4.5,336.63,-0.068,1.402,0.803,85.77,723.1,4420.8,65.1,95.6,0,0,0
1772359686.0,334.28,35224.7,-7.12,37.35,156.64,1.913,-0.433,0.078,88.33,703.8,4294.5,59.8,90.6,0,0,0
1772359687.0,567.56,27184.1,-0.76,-3.07,192.96,-0.641,1.252,1.123,94.42,779.6,4969.0,71.5,89.2,0,0,0
1772359688.0,515.09,22322.5,2.47,-6.15,197.02,-0.079,-0.589,0.924,75.4,814.0,3115.5,62.5,113.3,0,0,0
1772359689.0,465.26,27618.7,-0.0,45.89,292.58,-0.11,0.414,0.72,89.16,634.9,3460.7,65.5,75.7,0,0,0
1772359690.0,465.47,28777.9,2.6,51.45,272.77,-0.872,0.177,0.429,90.06,831.6,3854.8,57.5,102.4,0,0,0
1772359691.0,447.39,31031.1,0.67,18.04,18.79,-0.958,0.162,3.265,92.13,654.5,3811.8,42.0,85.0,0,0,0
1772359692.0,399.03,32904.4,1.52,-17.47,114.69,0.13,-0.832,1.591,89.0,679.3,3989.4,57.1,80.1,0,0,0
1772359693.0,552.0,26766.2,-8.29,16.47,189.36,-0.095,-1.33,2.708,82.81,618.6,3961.9,62.4,136.1,0,0,0
1772359694.0,470.66,24219.1,-2.47,13.83,243.35,-0.306,-0.676,0.428,92.16,836.5,3987.2,60.5,101.0,0,0,0
1772359695.0,417.98,10355.3,5.66,28.83,2.58,0.091,0.08,-0.183,93.09,703.5,3778.2,48.7,120.3,0,0,0
1772359696.0,437.93,16022.2,4.97,35.96,307.77,0.574,0.307,-0.285,88.07,803.8,3600.0,51.8,94.3,0,0,0
1772359697.0,617.36,27499.4,1.61,25.53,237.54,-0.415,-0.67,-0.252,80.65,760.4,4895.3,68.7,101.0,0,0,0
1772359698.0,541.72,33274.3,6.28,-14.27,52.9,0.142,-1.075,2.081,80.11,628.2,5412.9,60.9,94.5,0,0,0
1772359699.0,524.03,31681.7,0.73,-51.44,329.26,-1.607,0.171,-0.016,81.08,642.5,3746.8,63.6,79.6,0,0,0
